fall,nametype,mass,name,recclass,reclat,reclong,id,geolocation.latitude,geolocation.needs_recoding,geolocation.longitude,yearOnly,eraName
Fell,Valid,472,Nogata,L6,33.725000,130.750000,16988,33.725,FALSE,130.75,861,middleAges
Fell,Valid,NA,Narni,Stone-uncl,42.516670,12.516670,16914,42.51667,FALSE,12.51667,921,middleAges
Fell,Valid,107e3,Elbogen,"Iron, IID",50.183330,12.733330,7823,50.18333,FALSE,12.73333,1400,middleAges
Fell,Valid,103.3,Rivolta de Bassi,Stone-uncl,45.483330,9.516670,22614,45.48333,FALSE,9.51667,1491,middleAges
Fell,Valid,127e3,Ensisheim,LL6,47.866670,7.350000,10039,47.86667,FALSE,7.35,1492,middleAges
Fell,Valid,NA,Oliva-Gandia,Stone-uncl,39.000000,-0.033330,18012,39,FALSE,-0.03333,1520,earlyModernPeriod
Fell,Valid,15e3,Castrovillari,Stone-uncl,39.800000,16.200000,5295,39.8,FALSE,16.2,1583,earlyModernPeriod
Fell,Valid,1967,Jalandhar,Iron,31.000000,75.000000,12069,31,FALSE,75,1621,earlyModernPeriod
Fell,Valid,10400,Stretchleigh,Stone-uncl,50.383330,-3.950000,23732,50.38333,FALSE,-3.95,1623,earlyModernPeriod
Fell,Valid,29e3,Hatford,Stone-uncl,51.650000,-1.516670,11855,51.65,FALSE,-1.51667,1628,earlyModernPeriod
Fell,Valid,1040,Minamino,L,35.078330,136.933330,16692,35.07833,FALSE,136.93333,1632,earlyModernPeriod
Fell,Valid,NA,Sagan,Stone-uncl,51.533330,14.883330,22796,51.53333,FALSE,14.88333,1636,earlyModernPeriod
Fell,Valid,17e3,Mount Vaisi,Stone-uncl,44.083330,6.866670,16805,44.08333,FALSE,6.86667,1637,earlyModernPeriod
Fell,Valid,NA,Stolzenau,Stone-uncl,52.533330,9.050000,23726,52.53333,FALSE,9.05,1647,earlyModernPeriod
Fell,Valid,NA,Fünen,Stone-uncl,55.333330,10.333330,10838,55.33333,FALSE,10.33333,1654,earlyModernPeriod
Fell,Valid,NA,Novy-Ergi,Stone-uncl,58.550000,31.333330,17934,58.55,FALSE,31.33333,1662,earlyModernPeriod
Fell,Valid,4500,Ortenau,Stone-uncl,48.500000,8.000000,18033,48.5,FALSE,8,1671,earlyModernPeriod
Fell,Valid,695,Sasagase,H,34.716670,137.783330,23187,34.71667,FALSE,137.78333,1688,earlyModernPeriod
Fell,Valid,NA,Barcelona (stone),OC,41.366670,2.166670,4944,41.36667,FALSE,2.16667,1704,earlyModernPeriod
Fell,Valid,7e3,Schellin,L,53.350000,15.050000,23457,53.35,FALSE,15.05,1715,earlyModernPeriod
Fell,Valid,39,Ploschkovitz,L5,50.533330,14.116670,18849,50.53333,FALSE,14.11667,1723,earlyModernPeriod
Fell,Valid,24700,Rasgrad,Stone-uncl,43.500000,26.533330,22396,43.5,FALSE,26.53333,1740,earlyModernPeriod
Fell,Valid,14360,Ogi,H6,33.283330,130.200000,17994,33.28333,FALSE,130.2,1741,earlyModernPeriod
Fell,Valid,NA,Nicorps,Stone-uncl,49.033330,-1.433330,16970,49.03333,FALSE,-1.43333,1750,earlyModernPeriod
Fell,Valid,49e3,Hraschina,"Iron, IID",46.100000,16.333330,11916,46.1,FALSE,16.33333,1751,earlyModernPeriod
Fell,Valid,14e3,Luponnas,H3-5,46.216670,5.000000,14757,46.21667,FALSE,5,1753,earlyModernPeriod
Fell,Valid,7540,Tabor,H5,49.400000,14.650000,23776,49.4,FALSE,14.65,1753,earlyModernPeriod
Fell,Valid,2e3,Albareto,L/LL4,44.650000,11.016670,453,44.65,FALSE,11.01667,1766,earlyModernPeriod
Fell,Valid,3500,Lucé,L6,47.850000,0.483330,14724,47.85,FALSE,0.48333,1768,earlyModernPeriod
Fell,Valid,19e3,Mauerkirchen,L6,48.183330,13.133330,15446,48.18333,FALSE,13.13333,1768,earlyModernPeriod
Fell,Valid,NA,Aire-sur-la-Lys,Unknown,50.666670,2.333330,425,50.66667,FALSE,2.33333,1769,earlyModernPeriod
Fell,Valid,4e3,Sena,H4,41.716670,-0.050000,23495,41.71667,FALSE,-0.05,1773,earlyModernPeriod
Fell,Valid,NA,Owrucz,OC,51.333330,28.833330,18062,51.33333,FALSE,28.83333,1775,earlyModernPeriod
Fell,Valid,2900,Rodach,Stone-uncl,50.350000,10.800000,22642,50.35,FALSE,10.8,1775,earlyModernPeriod
Fell,Valid,NA,Pettiswood,Stone-uncl,53.533330,-7.333330,18804,53.53333,FALSE,-7.33333,1779,earlyModernPeriod
Fell,Valid,3e3,Eichstädt,H5,48.900000,11.216670,7775,48.9,FALSE,11.21667,1785,earlyModernPeriod
Fell,Valid,1500,Kharkov,L6,50.625000,35.075000,12291,50.625,FALSE,35.075,1787,earlyModernPeriod
Fell,Valid,6400,Barbotan,H5,43.950000,-0.050000,4942,43.95,FALSE,-0.05,1790,earlyModernPeriod
Fell,Valid,NA,Castel Berardenga,Stone-uncl,43.350000,11.500000,5292,43.35,FALSE,11.5,1791,earlyModernPeriod
Fell,Valid,3700,Siena,LL5,43.116670,11.600000,23586,43.11667,FALSE,11.6,1794,earlyModernPeriod
Fell,Valid,25.5,Mulletiwu,L,9.333330,80.833330,16851,9.33333,FALSE,80.83333,1795,earlyModernPeriod
Fell,Valid,1850,Bjelaja Zerkov,H6,49.783330,30.166670,5063,49.78333,FALSE,30.16667,1796,earlyModernPeriod
Fell,Valid,4500,Portugal,Stone-uncl,38.500000,-8.000000,18876,38.5,FALSE,-8,1796,earlyModernPeriod
Fell,Valid,3700,Benares (a),LL4,25.366670,82.916670,5011,25.36667,FALSE,82.91667,1798,earlyModernPeriod
Fell,Valid,9e3,Salles,L5,46.050000,4.633330,23111,46.05,FALSE,4.63333,1798,earlyModernPeriod
Fell,Valid,220,Mauritius,L6,-20.000000,57.000000,15447,-20,FALSE,57,1801,oilAge
Fell,Valid,3200,Apt,L6,43.866670,5.383330,2320,43.86667,FALSE,5.38333,1803,oilAge
Fell,Valid,37e3,L'Aigle,L6,48.766670,0.633330,12434,48.76667,FALSE,0.63333,1803,oilAge
Fell,Valid,1600,Mässing,Howardite,48.133330,12.616670,15443,48.13333,FALSE,12.61667,1803,oilAge
Fell,Valid,56,Bocas,L6,23.000000,-102.000000,5093,23,FALSE,-102,1804,oilAge
Fell,Valid,100,Darmstadt,H5,49.866670,8.650000,6603,49.86667,FALSE,8.65,1804,oilAge
Fell,Valid,4500,High Possil,L6,55.900000,-4.233330,11884,55.9,FALSE,-4.23333,1804,oilAge
Fell,Valid,41,Asco,H6,42.450000,9.033330,2345,42.45,FALSE,9.03333,1805,oilAge
Fell,Valid,3891,Doroninsk,H5-7,51.200000,112.300000,7718,51.2,FALSE,112.3,1805,oilAge
Fell,Valid,6e3,Alais,CI1,44.116670,4.083330,448,44.11667,FALSE,4.08333,1806,oilAge
Fell,Valid,65500,Timochin,H5,54.500000,35.200000,24004,54.5,FALSE,35.2,1807,oilAge
Fell,Valid,1676,Borgo San Donino,LL6,44.866670,10.050000,5110,44.86667,FALSE,10.05,1808,oilAge
Fell,Valid,12800,Lissa,L6,50.200000,14.850000,14661,50.2,FALSE,14.85,1808,oilAge
Fell,Valid,70,Moradabad,L6,28.783330,78.833330,16740,28.78333,FALSE,78.83333,1808,oilAge
Fell,Valid,52e3,Stannern,Eucrite-mmict,49.283330,15.566670,23713,49.28333,FALSE,15.56667,1808,oilAge
Fell,Valid,195,Kikino,H6,55.000000,34.000000,12306,55,FALSE,34,1809,oilAge
Fell,Valid,1360,Caswell County,OC,36.500000,-79.250000,5296,36.5,FALSE,-79.25,1810,oilAge
Fell,Valid,27e3,Charsonville,H6,47.933330,1.566670,5329,47.93333,FALSE,1.56667,1810,oilAge
Fell,Valid,3520,Mooresfort,H5,52.450000,-8.333330,16737,52.45,FALSE,-8.33333,1810,oilAge
Fell,Valid,1440,Berlanguillas,L6,41.683330,-3.800000,5029,41.68333,FALSE,-3.8,1811,oilAge
Fell,Valid,6e3,Kuleschovka,L6,50.750000,33.500000,12370,50.75,FALSE,33.5,1811,oilAge
Fell,Valid,100,Punganaru,Stone-uncl,13.333330,78.950000,18902,13.33333,FALSE,78.95,1811,oilAge
Fell,Valid,500,Borodino,H5,55.466670,35.866670,5114,55.46667,FALSE,35.86667,1812,oilAge
Fell,Valid,31500,Chantonnay,L6,46.683330,1.050000,5325,46.68333,FALSE,1.05,1812,oilAge
Fell,Valid,2250,Erxleben,H6,52.216670,11.250000,10049,52.21667,FALSE,11.25,1812,oilAge
Fell,Valid,5e4,Limerick,H5,52.566670,-8.783330,14652,52.56667,FALSE,-8.78333,1813,oilAge
Fell,Valid,885,Luotolax,Howardite,61.200000,27.700000,14756,61.2,FALSE,27.7,1813,oilAge
Fell,Valid,3e4,Agen,H5,44.216670,0.616670,392,44.21667,FALSE,0.61667,1814,oilAge
Fell,Valid,18e3,Bachmut,L6,48.600000,38.000000,4917,48.6,FALSE,38,1814,oilAge
Fell,Valid,0.5,Chail,H6,25.366670,81.666670,5314,25.36667,FALSE,81.66667,1814,oilAge
Fell,Valid,28,Gurram Konda,L6,13.783330,78.566670,11464,13.78333,FALSE,78.56667,1814,oilAge
Fell,Valid,4e3,Chassigny,Martian (chassignite),47.716670,5.366670,5331,47.71667,FALSE,5.36667,1815,oilAge
Fell,Valid,13200,Durala,L6,30.300000,76.633330,7750,30.3,FALSE,76.63333,1815,oilAge
Fell,Valid,0.2,Hachi-oji,H?,35.650000,139.333330,11468,35.65,FALSE,139.33333,1817,oilAge
Fell,Valid,8500,Seres,H4,41.050000,23.566670,23501,41.05,FALSE,23.56667,1818,oilAge
Fell,Valid,2750,Slobodka,L4,55.000000,35.000000,23645,55,FALSE,35,1818,oilAge
Fell,Valid,5e3,Jonzac,Eucrite-mmict,45.433330,-0.450000,12202,45.43333,FALSE,-0.45,1819,oilAge
Fell,Valid,3e3,Pohlitz,L5,50.933330,12.133330,18853,50.93333,FALSE,12.13333,1819,oilAge
Fell,Valid,5213,Lixna,H4,56.000000,26.433330,14670,56,FALSE,26.43333,1820,oilAge
Fell,Valid,91e3,Juvinas,Eucrite-mmict,44.716670,4.300000,12214,44.71667,FALSE,4.3,1821,oilAge
Fell,Valid,NA,Angers,L6,47.466670,-0.550000,2301,47.46667,FALSE,-0.55,1822,oilAge
Fell,Valid,277,Épinal,H5,48.183330,6.466670,10041,48.18333,FALSE,6.46667,1822,oilAge
Fell,Valid,4e3,Futtehpur,L6,25.950000,80.816670,10839,25.95,FALSE,80.81667,1822,oilAge
Fell,Valid,89,Kadonah,H6,27.083330,78.333330,12221,27.08333,FALSE,78.33333,1822,oilAge
Fell,Valid,614,Botschetschki,L4,51.333330,33.883330,5117,51.33333,FALSE,33.88333,1823,oilAge
Fell,Valid,2300,Nobleborough,Eucrite-pmict,44.083330,-69.483330,16984,44.08333,FALSE,-69.48333,1823,oilAge
Fell,Valid,1e3,Renazzo,CR2,44.766670,11.283330,22586,44.76667,FALSE,11.28333,1824,oilAge
Fell,Valid,2420,Honolulu,L5,21.300000,-157.866670,11904,21.3,FALSE,-157.86667,1825,oilAge
Fell,Valid,7500,Nanjemoy,H6,38.416670,-77.166670,16904,38.41667,FALSE,-77.16667,1825,oilAge
Fell,Valid,132.7,Galapian,H6,44.300000,0.400000,10846,44.3,FALSE,0.4,1826,oilAge
Fell,Valid,42,Mineo,Pallasite,37.283330,14.700000,16696,37.28333,FALSE,14.7,1826,oilAge
Fell,Valid,4e4,Pavlograd,L6,48.533330,35.983330,18176,48.53333,FALSE,35.98333,1826,oilAge
Fell,Valid,4e3,Bialystok,Eucrite-pmict,53.100000,23.200000,5042,53.1,FALSE,23.2,1827,oilAge
Fell,Valid,5e3,Drake Creek,L6,36.400000,-86.500000,7728,36.4,FALSE,-86.5,1827,oilAge
Fell,Valid,350,Mhow,L6,25.900000,83.616670,16629,25.9,FALSE,83.61667,1827,oilAge
Fell,Valid,1800,Richmond,LL5,37.466670,-77.500000,22603,37.46667,FALSE,-77.5,1828,oilAge
Fell,Valid,28,Deal,L6,40.250000,-74.000000,6634,40.25,FALSE,-74,1829,oilAge
Fell,Valid,16300,Forsyth,L6,33.016670,-83.966670,10164,33.01667,FALSE,-83.96667,1829,oilAge
Fell,Valid,2440,Krasnoi-Ugol,L6,54.033330,40.900000,12355,54.03333,FALSE,40.9,1829,oilAge
Fell,Valid,1060,Launton,L6,51.900000,-1.116670,12740,51.9,FALSE,-1.11667,1830,oilAge
Fell,Valid,2,Perth,LL5,56.400000,-3.433330,18797,56.4,FALSE,-3.43333,1830,oilAge
Fell,Valid,470,Blansko,H6,49.366670,16.633330,5072,49.36667,FALSE,16.63333,1833,oilAge
Fell,Valid,12e3,Charwallas,H6,29.483330,75.500000,5330,29.48333,FALSE,75.5,1834,oilAge
Fell,Valid,12e3,Okniny,LL6,50.833330,25.500000,18002,50.83333,FALSE,25.5,1834,oilAge
Fell,Valid,700,Aldsworth,LL5,51.783330,-1.783330,461,51.78333,FALSE,-1.78333,1835,oilAge
Fell,Valid,4300,Charlotte,"Iron, IVA",36.166670,-87.333330,5328,36.16667,FALSE,-87.33333,1835,oilAge
Fell,Valid,800,Aubres,Aubrite,44.383330,5.166670,4893,44.38333,FALSE,5.16667,1836,oilAge
Fell,Valid,1500,Macau,H5,-5.200000,-36.666670,15370,-5.2,FALSE,-36.66667,1836,oilAge
Fell,Valid,1e3,Mascombes,L6,45.366670,1.866670,15438,45.36667,FALSE,1.86667,1836,oilAge
Fell,Valid,1500,Esnandes,L6,46.250000,-1.100000,10051,46.25,FALSE,-1.1,1837,oilAge
Fell,Valid,10500,Gross-Divina,H5,49.266670,18.716670,11207,49.26667,FALSE,18.71667,1837,oilAge
Fell,Valid,1800,Akbarpur,H4,29.716670,77.950000,427,29.71667,FALSE,77.95,1838,oilAge
Fell,Valid,8800,Chandakapur,L5,20.266670,76.016670,5320,20.26667,FALSE,76.01667,1838,oilAge
Fell,Valid,5200,Cold Bokkeveld,CM2,-33.133330,19.383330,5397,-33.13333,FALSE,19.38333,1838,oilAge
Fell,Valid,230,Kaee,H5,27.250000,79.966670,12222,27.25,FALSE,79.96667,1838,oilAge
Fell,Valid,500,Montlivault,L6,47.633330,1.583330,16729,47.63333,FALSE,1.58333,1838,oilAge
Fell,Valid,491,Little Piney,L5,37.916670,-92.083330,14664,37.91667,FALSE,-92.08333,1839,oilAge
Fell,Valid,6460,Cereseto,H5,45.083330,8.300000,5308,45.08333,FALSE,8.3,1840,oilAge
Fell,Valid,3e3,Karakol,LL6,47.216670,81.016670,12256,47.21667,FALSE,81.01667,1840,oilAge
Fell,Valid,3e4,Château-Renard,L6,47.933330,2.916670,5332,47.93333,FALSE,2.91667,1841,oilAge
Fell,Valid,1e3,Grüneberg,H4,51.933330,15.500000,11426,51.93333,FALSE,15.5,1841,oilAge
Fell,Valid,5500,St. Christophe-la-Chartreuse,L6,46.950000,-1.500000,23082,46.95,FALSE,-1.5,1841,oilAge
Fell,Valid,2e3,Aumieres,L6,44.333330,3.233330,4900,44.33333,FALSE,3.23333,1842,oilAge
Fell,Valid,3200,Barea,Mesosiderite-A1,42.383330,-2.500000,4946,42.38333,FALSE,-2.5,1842,oilAge
Fell,Valid,1e4,Milena,L6,46.183330,16.100000,16640,46.18333,FALSE,16.1,1842,oilAge
Fell,Valid,NA,Myhee Caunta,OC,23.050000,72.633330,16887,23.05,FALSE,72.63333,1842,oilAge
Fell,Valid,6e3,Bishopville,Aubrite,34.166670,-80.283330,5059,34.16667,FALSE,-80.28333,1843,oilAge
Fell,Valid,3250,Klein-Wenden,H6,51.600000,10.800000,12332,51.6,FALSE,10.8,1843,oilAge
Fell,Valid,50,Manegaon,Diogenite,20.966670,76.100000,15403,20.96667,FALSE,76.1,1843,oilAge
Fell,Valid,NA,Picote,Stone-uncl,41.366670,-6.233330,18816,41.36667,FALSE,-6.23333,1843,oilAge
Fell,Valid,1200,Cosina,H5,21.166670,-100.866670,5451,21.16667,FALSE,-100.86667,1844,oilAge
Fell,Valid,1500,Favars,H5,44.383330,2.816670,10078,44.38333,FALSE,2.81667,1844,oilAge
Fell,Valid,140,Killeter,H6,54.666670,-7.666670,12309,54.66667,FALSE,-7.66667,1844,oilAge
Fell,Valid,3e3,Le Pressoir,H5,47.166670,0.433330,12748,47.16667,FALSE,0.43333,1845,oilAge
Fell,Valid,780,Le Teilleul,Howardite,48.533330,-0.866670,12749,48.53333,FALSE,-0.86667,1845,oilAge
Fell,Valid,2300,Cape Girardeau,H6,37.266670,-89.583330,5260,37.26667,FALSE,-89.58333,1846,oilAge
Fell,Valid,3130,Monte Milone,L5,43.266670,13.350000,16726,43.26667,FALSE,13.35,1846,oilAge
Fell,Valid,8e3,Schönenberg,L6,48.116670,10.466670,23460,48.11667,FALSE,10.46667,1846,oilAge
Fell,Valid,39e3,Braunau,"Iron, IIAB",50.600000,16.300000,5133,50.6,FALSE,16.3,1847,oilAge
Fell,Valid,28400,Marion (Iowa),L6,41.900000,-91.600000,15424,41.9,FALSE,-91.6,1847,oilAge
Fell,Valid,94,Castine,L6,44.383330,-68.750000,5293,44.38333,FALSE,-68.75,1848,oilAge
Fell,Valid,1800,Dharwar,OC,14.883330,75.600000,6699,14.88333,FALSE,75.6,1848,oilAge
Fell,Valid,3e3,Marmande,L5,44.500000,0.150000,15429,44.5,FALSE,0.15,1848,oilAge
Fell,Valid,850,Ski,L6,59.733330,10.866670,23621,59.73333,FALSE,10.86667,1848,oilAge
Fell,Valid,8600,Monroe,H4,35.250000,-80.500000,16720,35.25,FALSE,-80.5,1849,oilAge
Fell,Valid,135e3,Kesen,H4,38.983330,141.616670,12286,38.98333,FALSE,141.61667,1850,oilAge
Fell,Valid,4e3,Shalka,Diogenite,23.100000,87.300000,23521,23.1,FALSE,87.3,1850,oilAge
Fell,Valid,1e3,Gütersloh,H3/4,51.916670,8.383330,11466,51.91667,FALSE,8.38333,1851,oilAge
Fell,Valid,5e3,Nulles,H6,41.633330,0.750000,17959,41.63333,FALSE,0.75,1851,oilAge
Fell,Valid,65,Quincay,L6,46.600000,0.250000,22363,46.6,FALSE,0.25,1851,oilAge
Fell,Valid,7e3,Borkut,L5,48.150000,24.283330,5113,48.15,FALSE,24.28333,1852,oilAge
Fell,Valid,1500,Bustee,Aubrite,26.783330,82.833330,5181,26.78333,FALSE,82.83333,1852,oilAge
Fell,Valid,22700,Mezö-Madaras,L3.7,46.500000,25.733330,16628,46.5,FALSE,25.73333,1852,oilAge
Fell,Valid,577,Duruma,L6,-4.000000,39.500000,7752,-4,FALSE,39.5,1853,oilAge
Fell,Valid,18e3,Girgenti,L6,37.316670,13.566670,10917,37.31667,FALSE,13.56667,1853,oilAge
Fell,Valid,6930,Segowlie,LL6,26.750000,84.783330,23476,26.75,FALSE,84.78333,1853,oilAge
Fell,Valid,1862,Linum,L6,52.750000,12.900000,14655,52.75,FALSE,12.9,1854,oilAge
Fell,Valid,146,Avilez,H,25.000000,-103.500000,4907,25,FALSE,-103.5,1855,oilAge
Fell,Valid,7250,Bremervörde,H/L3.9,53.400000,9.100000,5135,53.4,FALSE,9.1,1855,oilAge
Fell,Valid,6e3,Oesel,L6,58.500000,23.000000,17989,58.5,FALSE,23,1855,oilAge
Fell,Valid,1800,Petersburg,Eucrite-pmict,35.300000,-86.633330,18801,35.3,FALSE,-86.63333,1855,oilAge
Fell,Valid,1250,Sabetmahet,H5,27.433330,82.083330,22792,27.43333,FALSE,82.08333,1855,oilAge
Fell,Valid,700,St. Denis Westrem,L6,51.050000,3.750000,23083,51.05,FALSE,3.75,1855,oilAge
Fell,Valid,205,Oviedo,H5,43.400000,-5.866670,18058,43.4,FALSE,-5.86667,1856,oilAge
Fell,Valid,1e3,Heredia,H5,10.000000,-84.100000,11875,10,FALSE,-84.1,1857,oilAge
Fell,Valid,3e3,Kaba,CV3,47.350000,21.300000,12218,47.35,FALSE,21.3,1857,oilAge
Fell,Valid,125,Les Ormes,L6,48.350000,3.250000,12769,48.35,FALSE,3.25,1857,oilAge
Fell,Valid,16250,Ohaba,H5,46.066670,23.583330,17995,46.06667,FALSE,23.58333,1857,oilAge
Fell,Valid,77600,Parnallee,LL3.6,9.233330,78.350000,18108,9.23333,FALSE,78.35,1857,oilAge
Fell,Valid,6045,Quenggouk,H4,17.766670,95.183330,22358,17.76667,FALSE,95.18333,1857,oilAge
Fell,Valid,1500,Stavropol,L6,45.050000,41.983330,23717,45.05,FALSE,41.98333,1857,oilAge
Fell,Valid,5e4,Ausson,L5,43.083330,0.583330,4903,43.08333,FALSE,0.58333,1858,oilAge
Fell,Valid,577,Kakowa,L6,45.133330,21.666670,12231,45.13333,FALSE,21.66667,1858,oilAge
Fell,Valid,144e3,Molina,H5,38.116670,-1.166670,16715,38.11667,FALSE,-1.16667,1858,oilAge
Fell,Valid,13.9,Bethlehem,H,42.533330,-73.833330,5032,42.53333,FALSE,-73.83333,1859,oilAge
Fell,Valid,2e3,Beuste,L5,43.216670,-0.233330,5034,43.21667,FALSE,-0.23333,1859,oilAge
Fell,Valid,680,Harrison County,L6,38.250000,-86.166670,11842,38.25,FALSE,-86.16667,1859,oilAge
Fell,Valid,10500,Pampanga,L5,15.083330,120.700000,18093,15.08333,FALSE,120.7,1859,oilAge
Fell,Valid,908,Alessandria,H5,44.883330,8.750000,463,44.88333,FALSE,8.75,1860,oilAge
Fell,Valid,32e3,Dhurmsala,LL6,32.233330,76.466670,7640,32.23333,FALSE,76.46667,1860,oilAge
Fell,Valid,450,Kheragur,L6,26.950000,77.883330,12294,26.95,FALSE,77.88333,1860,oilAge
Fell,Valid,5,Kusiali,L6,29.683330,78.383330,12382,29.68333,FALSE,78.38333,1860,oilAge
Fell,Valid,23e4,New Concord,L6,40.000000,-81.766670,16953,40,FALSE,-81.76667,1860,oilAge
Fell,Valid,54,Sologne,H5,47.366670,1.733330,23663,47.36667,FALSE,1.73333,1860,oilAge
Fell,Valid,29e3,Butsura,H6,27.083330,84.083330,5183,27.08333,FALSE,84.08333,1861,oilAge
Fell,Valid,945,Cañellas,H4,41.250000,1.666670,5251,41.25,FALSE,1.66667,1861,oilAge
Fell,Valid,3500,Grosnaja,CV3,43.666670,45.383330,11206,43.66667,FALSE,45.38333,1861,oilAge
Fell,Valid,22,Meerut,H5,29.016670,77.800000,15469,29.01667,FALSE,77.8,1861,oilAge
Fell,Valid,10500,Menow,H4,53.183330,13.150000,15485,53.18333,FALSE,13.15,1862,oilAge
Fell,Valid,180,Sevilla,LL4,37.416670,-6.000000,23508,37.41667,FALSE,-6,1862,oilAge
Fell,Valid,5e3,Buschhof,L6,46.450000,25.783330,5178,46.45,FALSE,25.78333,1863,oilAge
Fell,Valid,1700,Manbhoom,LL6,23.050000,86.700000,15402,23.05,FALSE,86.7,1863,oilAge
Fell,Valid,23250,Pillistfer,EL6,58.666670,25.733330,18822,58.66667,FALSE,25.73333,1863,oilAge
Fell,Valid,560,Pulsora,H5,23.366670,75.183330,18899,23.36667,FALSE,75.18333,1863,oilAge
Fell,Valid,3200,Shytal,L6,24.333330,90.166670,23584,24.33333,FALSE,90.16667,1863,oilAge
Fell,Valid,1600,Dolgovoli,L6,50.750000,25.300000,7659,50.75,FALSE,25.3,1864,oilAge
Fell,Valid,10250,Nerft,L6,56.500000,21.500000,16945,56.5,FALSE,21.5,1864,oilAge
Fell,Valid,14e3,Orgueil,CI1,43.883330,1.383330,18026,43.88333,FALSE,1.38333,1864,oilAge
Fell,Valid,5e4,Aumale,L6,36.166670,3.666670,4899,36.16667,FALSE,3.66667,1865,oilAge
Fell,Valid,2270,Dundrum,H5,52.550000,-8.033330,7745,52.55,FALSE,-8.03333,1865,oilAge
Fell,Valid,1600,Gopalpur,H6,24.233330,89.050000,10948,24.23333,FALSE,89.05,1865,oilAge
Fell,Valid,4400,Muddoor,L5,12.633330,77.016670,16841,12.63333,FALSE,77.01667,1865,oilAge
Fell,Valid,5e3,Shergotty,Martian (shergottite),24.550000,84.833330,23530,24.55,FALSE,84.83333,1865,oilAge
Fell,Valid,7235,Supuhee,H6,26.716670,84.216670,23760,26.71667,FALSE,84.21667,1865,oilAge
Fell,Valid,34e3,Cangas de Onis,H5,43.383330,-5.150000,5252,43.38333,FALSE,-5.15,1866,oilAge
Fell,Valid,22,Jamkheir,H6,18.750000,75.333330,12072,18.75,FALSE,75.33333,1866,oilAge
Fell,Valid,5e5,Knyahinya,L/LL5,48.900000,22.400000,12335,48.9,FALSE,22.4,1866,oilAge
Fell,Valid,350,Pokhra,H5,26.716670,82.666670,18858,26.71667,FALSE,82.66667,1866,oilAge
Fell,Valid,17100,Sone,H5,35.166670,135.333330,23667,35.16667,FALSE,135.33333,1866,oilAge
Fell,Valid,8300,St. Mesmin,LL6,48.450000,3.933330,23092,48.45,FALSE,3.93333,1866,oilAge
Fell,Valid,100,Khetri,H6,28.016670,75.816670,12296,28.01667,FALSE,75.81667,1867,oilAge
Fell,Valid,6510,Otomi,H,38.400000,140.350000,18045,38.4,FALSE,140.35,1867,oilAge
Fell,Valid,9e3,Tadjera,L5,36.183330,5.416670,23778,36.18333,FALSE,5.41667,1867,oilAge
Fell,Valid,1064,Daniel's Kuil,EL6,-28.200000,24.566670,5513,-28.2,FALSE,24.56667,1868,oilAge
Fell,Valid,2e3,Danville,L6,34.400000,-87.066670,5514,34.4,FALSE,-87.06667,1868,oilAge
Fell,Valid,650,Frankfort (stone),Howardite,34.483330,-87.833330,10177,34.48333,FALSE,-87.83333,1868,oilAge
Fell,Valid,1e3,Lodran,Lodranite,29.533330,71.800000,14675,29.53333,FALSE,71.8,1868,oilAge
Fell,Valid,1500,Moti-ka-nagla,H6,26.833330,77.333330,16759,26.83333,FALSE,77.33333,1868,oilAge
Fell,Valid,9150,Motta di Conti,H4,45.200000,8.500000,16762,45.2,FALSE,8.5,1868,oilAge
Fell,Valid,6e3,Ornans,CO3.4,47.116670,6.150000,18030,47.11667,FALSE,6.15,1868,oilAge
Fell,Valid,96,Pnompehn,L6,11.583330,104.916670,18851,11.58333,FALSE,104.91667,1868,oilAge
Fell,Valid,25e4,Pultusk,H5,52.766670,21.266670,18901,52.76667,FALSE,21.26667,1868,oilAge
Fell,Valid,4e3,Sauguis,L6,43.150000,-0.850000,23188,43.15,FALSE,-0.85,1868,oilAge
Fell,Valid,1708,Slavetic,H5,45.683330,15.600000,23626,45.68333,FALSE,15.6,1868,oilAge
Fell,Valid,1500,Angra dos Reis (stone),Angrite,-22.966670,-44.316670,2302,-22.96667,FALSE,-44.31667,1869,oilAge
Fell,Valid,2e4,Hessle,H5,59.850000,17.666670,11878,59.85,FALSE,17.66667,1869,oilAge
Fell,Valid,8e4,Kernouve,H6,48.116670,-3.083330,12284,48.11667,FALSE,-3.08333,1869,oilAge
Fell,Valid,16500,Krähenberg,LL5,49.326940,7.464720,12353,49.32694,FALSE,7.46472,1869,oilAge
Fell,Valid,340,Lumpkin,L6,32.033330,-84.766670,14753,32.03333,FALSE,-84.76667,1869,oilAge
Fell,Valid,2e4,Tjabe,H6,-7.083330,111.533330,24011,-7.08333,FALSE,111.53333,1869,oilAge
Fell,Valid,25e3,Cabezo de Mayo,L/LL6,37.983330,-1.166670,5185,37.98333,FALSE,-1.16667,1870,oilAge
Fell,Valid,2e3,Ibbenbüren,Diogenite,52.283330,7.700000,11992,52.28333,FALSE,7.7,1870,oilAge
Fell,Valid,4500,Nedagolla,"Iron, ungrouped",18.683330,83.483330,16935,18.68333,FALSE,83.48333,1870,oilAge
Fell,Valid,11500,Bandong,LL6,-6.916670,107.600000,4935,-6.91667,FALSE,107.6,1871,oilAge
Fell,Valid,3833,Laborel,H5,44.283330,5.583330,12408,44.28333,FALSE,5.58333,1871,oilAge
Fell,Valid,400,Roda,Diogenite,42.300000,0.550000,22641,42.3,FALSE,0.55,1871,oilAge
Fell,Valid,5400,Searsmont,H5,44.366670,-69.200000,23472,44.36667,FALSE,-69.2,1871,oilAge
Fell,Valid,300,Dyalpur,Ureilite,26.250000,82.000000,7757,26.25,FALSE,82,1872,oilAge
Fell,Valid,51700,Lancé,CO3.5,47.700000,1.066670,12455,47.7,FALSE,1.06667,1872,oilAge
Fell,Valid,3400,Orvinio,H6,42.133330,12.933330,18034,42.13333,FALSE,12.93333,1872,oilAge
Fell,Valid,28500,Tennasilm,L4,58.033330,26.950000,23898,58.03333,FALSE,26.95,1872,oilAge
Fell,Valid,3200,Aleppo,L6,36.233330,37.133330,462,36.23333,FALSE,37.13333,1873,oilAge
Fell,Valid,5900,Jhung,L5,31.300000,72.383330,12085,31.3,FALSE,72.38333,1873,oilAge
Fell,Valid,13600,Khairpur,EL6,29.533330,72.300000,12288,29.53333,FALSE,72.3,1873,oilAge
Fell,Valid,400,Santa Barbara,L4,-29.200000,-51.866670,23161,-29.2,FALSE,-51.86667,1873,oilAge
Fell,Valid,7300,Castalia,H5,36.083330,-78.066670,5291,36.08333,FALSE,-78.06667,1874,oilAge
Fell,Valid,5e3,Kerilis,H5,48.400000,-3.300000,12282,48.4,FALSE,-3.3,1874,oilAge
Fell,Valid,101e3,Sevrukovo,L5,50.616670,36.600000,23509,50.61667,FALSE,36.6,1874,oilAge
Fell,Valid,380,Feid Chair,H4,36.883330,8.450000,10080,36.88333,FALSE,8.45,1875,oilAge
Fell,Valid,23e4,Homestead,L5,41.800000,-91.866670,11901,41.8,FALSE,-91.86667,1875,oilAge
Fell,Valid,1300,Mornans,H5,44.600000,5.133330,16747,44.6,FALSE,5.13333,1875,oilAge
Fell,Valid,20,Nagaria,Eucrite-cm,26.983330,78.216670,16892,26.98333,FALSE,78.21667,1875,oilAge
Fell,Valid,1600,Sitathali,H5,20.916670,82.583330,23616,20.91667,FALSE,82.58333,1875,oilAge
Fell,Valid,680,Judesegeri,H6,12.850000,76.800000,12207,12.85,FALSE,76.8,1876,oilAge
Fell,Valid,340,Rochester,H6,41.083330,-86.283330,22637,41.08333,FALSE,-86.28333,1876,oilAge
Fell,Valid,3500,Rowton,"Iron, IIIAB",52.766670,-2.516670,22773,52.76667,FALSE,-2.51667,1876,oilAge
Fell,Valid,34e3,Ställdalen,H5,59.933330,14.950000,23712,59.93333,FALSE,14.95,1876,oilAge
Fell,Valid,18,Bhagur,L6,20.883330,74.833330,5037,20.88333,FALSE,74.83333,1877,oilAge
Fell,Valid,3650,Cronstad,H5,-27.700000,27.300000,5474,-27.7,FALSE,27.3,1877,oilAge
Fell,Valid,6e3,Cynthiana,L/LL4,38.400000,-84.250000,5500,38.4,FALSE,-84.25,1877,oilAge
Fell,Valid,112,Hungen,H6,50.300000,8.916670,11986,50.3,FALSE,8.91667,1877,oilAge
Fell,Valid,30,Jodzie,Howardite,55.700000,24.400000,12173,55.7,FALSE,24.4,1877,oilAge
Fell,Valid,8e4,Soko-Banja,LL4,43.666670,21.866670,23661,43.66667,FALSE,21.86667,1877,oilAge
Fell,Valid,5650,Dandapur,L6,26.916670,83.966670,5511,26.91667,FALSE,83.96667,1878,oilAge
Fell,Valid,1e3,Haraiya,Eucrite-mmict,26.800000,82.533330,11824,26.8,FALSE,82.53333,1878,oilAge
Fell,Valid,399,La Charca,OC,20.666670,-101.283330,12394,20.66667,FALSE,-101.28333,1878,oilAge
Fell,Valid,4e3,Mern,L6,55.050000,12.066670,15489,55.05,FALSE,12.06667,1878,oilAge
Fell,Valid,9e3,Rakovka,L6,52.983330,37.033330,22376,52.98333,FALSE,37.03333,1878,oilAge
Fell,Valid,28e3,Tieschitz,H/L3.6,49.600000,17.116670,23989,49.6,FALSE,17.11667,1878,oilAge
Fell,Valid,32e4,Estherville,Mesosiderite-A3/4,43.416670,-94.833330,10059,43.41667,FALSE,-94.83333,1879,oilAge
Fell,Valid,1750,Gnadenfrei,H5,50.666670,16.766670,10936,50.66667,FALSE,16.76667,1879,oilAge
Fell,Valid,2024,Itapicuru-Mirim,H5,-3.400000,-44.333330,12056,-3.4,FALSE,-44.33333,1879,oilAge
Fell,Valid,4500,Kalumbi,L6,17.833330,73.983330,12236,17.83333,FALSE,73.98333,1879,oilAge
Fell,Valid,2800,La Bécasse,L6,47.083330,1.750000,12392,47.08333,FALSE,1.75,1879,oilAge
Fell,Valid,4e3,Nogoya,CM2,-32.366670,-59.833330,16989,-32.36667,FALSE,-59.83333,1879,oilAge
Fell,Valid,16e4,Tenham,L6,-25.733330,142.950000,23897,-25.73333,FALSE,142.95,1879,oilAge
Fell,Valid,900,Tomatlan,H6,20.166670,-105.216670,24020,20.16667,FALSE,-105.21667,1879,oilAge
Fell,Valid,21,Aachen,L5,50.775000,6.083330,1,50.775,FALSE,6.08333,1880,oilAge
Fell,Valid,2700,Andhara,Stone-uncl,26.583330,85.566670,2294,26.58333,FALSE,85.56667,1880,oilAge
Fell,Valid,72,Chetrinahatti,Stone-uncl,14.500000,76.500000,5344,14.5,FALSE,76.5,1880,oilAge
Fell,Valid,910,Ratyn,Stone-uncl,52.200000,17.983330,22398,52.2,FALSE,17.98333,1880,oilAge
Fell,Valid,720,Takenouchi,H5,35.383330,134.900000,23789,35.38333,FALSE,134.9,1880,oilAge
Fell,Valid,8e3,Grossliebenthal,L6,46.350000,30.583330,11208,46.35,FALSE,30.58333,1881,oilAge
Fell,Valid,1600,Middlesbrough,L6,54.566670,-1.166670,16632,54.56667,FALSE,-1.16667,1881,oilAge
Fell,Valid,3400,Pacula,L6,21.050000,-99.300000,18068,21.05,FALSE,-99.3,1881,oilAge
Fell,Valid,37,Piquetberg,H,-32.866670,18.716670,18832,-32.86667,FALSE,18.71667,1881,oilAge
Fell,Valid,11620,Fukutomi,L5,33.183330,130.200000,10836,33.18333,FALSE,130.2,1882,oilAge
Fell,Valid,3e5,Mocs,L5-6,46.800000,24.033330,16709,46.8,FALSE,24.03333,1882,oilAge
Fell,Valid,2e3,Pavlovka,Howardite,52.033330,43.000000,18177,52.03333,FALSE,43,1882,oilAge
Fell,Valid,842,Pirgunje,L6,25.800000,88.450000,18834,25.8,FALSE,88.45,1882,oilAge
Fell,Valid,228e3,Alfianello,L6,45.266670,10.150000,466,45.26667,FALSE,10.15,1883,oilAge
Fell,Valid,1393,Ngawi,LL3.6,-7.450000,111.416670,16966,-7.45,FALSE,111.41667,1883,oilAge
Fell,Valid,360,St. Caprais-de-Quinsac,L6,44.750000,0.050000,23081,44.75,FALSE,0.05,1883,oilAge
Fell,Valid,166e3,Djati-Pengilon,H6,-7.500000,111.500000,7652,-7.5,FALSE,111.5,1884,oilAge
Fell,Valid,1161,Pirthalla,H6,29.583330,76.000000,18835,29.58333,FALSE,76,1884,oilAge
Fell,Valid,1100,Chandpur,L6,27.283330,79.050000,5321,27.28333,FALSE,79.05,1885,oilAge
Fell,Valid,4e3,Mazapil,"Iron, IAB-sLL",24.683330,-101.683330,15453,24.68333,FALSE,-101.68333,1885,oilAge
Fell,Valid,2e3,Assisi,H5,43.033330,12.550000,2353,43.03333,FALSE,12.55,1886,oilAge
Fell,Valid,17,Barntrup,LL4,52.000000,9.100000,4948,52,FALSE,9.1,1886,oilAge
Fell,Valid,762,Bradford Woods,L,40.500000,-80.083330,5128,40.5,FALSE,-80.08333,1886,oilAge
Fell,Valid,48500,Cabin Creek,"Iron, IIIAB",35.500000,-93.500000,5186,35.5,FALSE,-93.5,1886,oilAge
Fell,Valid,45e3,Kyushu,L6,32.033330,130.633330,12390,32.03333,FALSE,130.63333,1886,oilAge
Fell,Valid,4500,Nammianthal,H5,12.283330,79.200000,16902,12.28333,FALSE,79.2,1886,oilAge
Fell,Valid,1900,Novo-Urei,Ureilite,54.816670,46.000000,17933,54.81667,FALSE,46,1886,oilAge
Fell,Valid,1900,Bielokrynitschie,H4,50.133330,27.166670,5043,50.13333,FALSE,27.16667,1887,oilAge
Fell,Valid,340,De Cewsville,H6,43.000000,-80.000000,6621,43,FALSE,-80,1887,oilAge
Fell,Valid,372,Lalitpur,L6,24.450000,78.566670,12451,24.45,FALSE,78.56667,1887,oilAge
Fell,Valid,5e5,Ochansk,H4,57.783330,55.266670,17979,57.78333,FALSE,55.26667,1887,oilAge
Fell,Valid,500,Phu Hong,H4,11.250000,108.583330,18809,11.25,FALSE,108.58333,1887,oilAge
Fell,Valid,2e4,Ergheo,L5,1.166670,44.166670,10044,1.16667,FALSE,44.16667,1889,oilAge
Fell,Valid,220,Ferguson,OC,36.100000,-81.416670,10088,36.1,FALSE,-81.41667,1889,oilAge
Fell,Valid,34e3,Jelica,LL6,43.833330,20.441670,12078,43.83333,FALSE,20.44167,1889,oilAge
Fell,Valid,11e3,Lundsgård,L6,56.216670,13.033330,14755,56.21667,FALSE,13.03333,1889,oilAge
Fell,Valid,8e3,Mighei,CM2,48.066670,30.966670,16634,48.06667,FALSE,30.96667,1889,oilAge
Fell,Valid,5e3,Collescipoli,H5,42.533330,12.616670,5403,42.53333,FALSE,12.61667,1890,oilAge
Fell,Valid,89400,Farmington,L5,39.750000,-97.033330,10074,39.75,FALSE,-97.03333,1890,oilAge
Fell,Valid,152e3,Forest City,H5,43.250000,-93.666670,10119,43.25,FALSE,-93.66667,1890,oilAge
Fell,Valid,1250,Hassi-Jekna,"Iron, IAB-sHL",28.950000,0.816670,11852,28.95,FALSE,0.81667,1890,oilAge
Fell,Valid,6e5,Jianshi,"Iron, IIIAB",30.808330,109.500000,12087,30.80833,FALSE,109.5,1890,oilAge
Fell,Valid,350,Kakangari,K3,12.383330,78.516670,12230,12.38333,FALSE,78.51667,1890,oilAge
Fell,Valid,5800,Misshof,H5,56.666670,23.000000,16703,56.66667,FALSE,23,1890,oilAge
Fell,Valid,105,Nawapali,CM2,21.250000,83.666670,16927,21.25,FALSE,83.66667,1890,oilAge
Fell,Valid,4e3,St. Germain-du-Pinel,H6,48.016670,-1.150000,23087,48.01667,FALSE,-1.15,1890,oilAge
Fell,Valid,1915,Guêa,Stone-uncl,43.766670,20.233330,11440,43.76667,FALSE,20.23333,1891,oilAge
Fell,Valid,27e3,Indarch,EH4,39.750000,46.666670,12027,39.75,FALSE,46.66667,1891,oilAge
Fell,Valid,15e3,Bansur,L6,27.700000,76.333330,4936,27.7,FALSE,76.33333,1892,oilAge
Fell,Valid,21e3,Bath,H4,45.416670,-98.316670,4974,45.41667,FALSE,-98.31667,1892,oilAge
Fell,Valid,167,Cross Roads,H5,35.633330,-78.133330,5476,35.63333,FALSE,-78.13333,1892,oilAge
Fell,Valid,39e3,Guareña,H6,38.733330,-6.016670,11439,38.73333,FALSE,-6.01667,1892,oilAge
Fell,Valid,14e3,Beaver Creek,H5,51.166670,-117.333330,4986,51.16667,FALSE,-117.33333,1893,oilAge
Fell,Valid,100,Bherai,L6,20.833330,71.466670,5039,20.83333,FALSE,71.46667,1893,oilAge
Fell,Valid,900,Pricetown,L6,39.116670,-83.850000,18888,39.11667,FALSE,-83.85,1893,oilAge
Fell,Valid,8600,Bori,L6,21.950000,78.033330,5111,21.95,FALSE,78.03333,1894,oilAge
Fell,Valid,17600,Fisher,L6,47.816670,-96.850000,10107,47.81667,FALSE,-96.85,1894,oilAge
Fell,Valid,25,Los Martinez,L6,38.000000,-0.833330,14708,38,FALSE,-0.83333,1894,oilAge
Fell,Valid,2500,Savtschenskoje,LL4,47.216670,29.866670,23190,47.21667,FALSE,29.86667,1894,oilAge
Fell,Valid,6400,Ambapur Nagla,H5,27.666670,78.250000,2290,27.66667,FALSE,78.25,1895,oilAge
Fell,Valid,1039,Bishunpur,LL3.15,25.383330,82.600000,5060,25.38333,FALSE,82.6,1895,oilAge
Fell,Valid,6100,Nagy-Borové,L5,49.166670,19.500000,16893,49.16667,FALSE,19.5,1895,oilAge
Fell,Valid,1641,Rockhampton,Stone-uncl,-23.383330,150.516670,22640,-23.38333,FALSE,150.51667,1895,oilAge
Fell,Valid,94.2,Atemajac,L6,20.066670,-103.666670,4884,20.06667,FALSE,-103.66667,1896,oilAge
Fell,Valid,2e3,Lesves,L6,50.366670,4.733330,12772,50.36667,FALSE,4.73333,1896,oilAge
Fell,Valid,400,Madrid,L6,40.416670,-3.716670,15382,40.41667,FALSE,-3.71667,1896,oilAge
Fell,Valid,840,Ottawa,LL6,38.600000,-95.216670,18046,38.6,FALSE,-95.21667,1896,oilAge
Fell,Valid,0.8,Delhi,L5,28.566670,77.250000,6642,28.56667,FALSE,77.25,1897,oilAge
Fell,Valid,6400,Gambat,L6,27.350000,68.533330,10851,27.35,FALSE,68.53333,1897,oilAge
Fell,Valid,750,Higashi-koen,H5,33.600000,130.433330,11883,33.6,FALSE,130.43333,1897,oilAge
Fell,Valid,400,Kangra Valley,H5,32.083330,76.300000,12246,32.08333,FALSE,76.3,1897,oilAge
Fell,Valid,7e3,Lancon,H6,43.750000,5.116670,12456,43.75,FALSE,5.11667,1897,oilAge
Fell,Valid,870,Meuselbach,L6,50.583330,11.100000,16626,50.58333,FALSE,11.1,1897,oilAge
Fell,Valid,467,Nio,H3-4,34.200000,131.566670,16982,34.2,FALSE,131.56667,1897,oilAge
Fell,Valid,3200,Andover,L6,44.616670,-70.750000,2295,44.61667,FALSE,-70.75,1898,oilAge
Fell,Valid,340,Mariaville,Iron,42.716670,-99.383330,15419,42.71667,FALSE,-99.38333,1898,oilAge
Fell,Valid,100.7,Mjelleim,H,61.733330,5.933330,16707,61.73333,FALSE,5.93333,1898,oilAge
Fell,Valid,10750,Quesa,"Iron, IAB-ung",39.000000,-0.666670,22360,39,FALSE,-0.66667,1898,oilAge
Fell,Valid,32e3,Allegan,H5,42.533330,-85.883330,2276,42.53333,FALSE,-85.88333,1899,oilAge
Fell,Valid,33e4,Bjurböle,L/LL4,60.400000,25.800000,5064,60.4,FALSE,25.8,1899,oilAge
Fell,Valid,230,Donga Kohrod,H6,21.866670,82.450000,7707,21.86667,FALSE,82.45,1899,oilAge
Fell,Valid,5e3,Magnesia,"Iron, IAB-sHL",37.866670,27.516670,15386,37.86667,FALSE,27.51667,1899,oilAge
Fell,Valid,165,Peramiho,Eucrite-mmict,-10.666670,35.500000,18792,-10.66667,FALSE,35.5,1899,oilAge
Fell,Valid,300,Rancho de la Presa,H5,19.866670,-100.816670,22390,19.86667,FALSE,-100.81667,1899,oilAge
Fell,Valid,9251,Alexandrovsky,H4,50.950000,31.816670,465,50.95,FALSE,31.81667,1900,oilAge
Fell,Valid,127,Emmaville,Eucrite-mmict,-29.466670,151.616670,10033,-29.46667,FALSE,151.61667,1900,oilAge
Fell,Valid,3200,Felix,CO3.3,32.533330,-87.166670,10081,32.53333,FALSE,-87.16667,1900,oilAge
Fell,Valid,240,Forsbach,H6,50.950000,7.316670,10163,50.95,FALSE,7.31667,1900,oilAge
Fell,Valid,700,Leonovka,L6,52.266670,32.850000,12765,52.26667,FALSE,32.85,1900,oilAge
Fell,Valid,37500,N'Goureyma,"Iron, ungrouped",13.850000,-4.383330,16968,13.85,FALSE,-4.38333,1900,oilAge
Fell,Valid,3750,Ofehértó,L6,47.883330,22.033330,17990,47.88333,FALSE,22.03333,1900,oilAge
Fell,Valid,121.5,Ovambo,L6,-18.000000,16.000000,18055,-18,FALSE,16,1900,oilAge
Fell,Valid,705,Chervettaz,L5,46.550000,6.816670,5341,46.55,FALSE,6.81667,1901,worldWars
Fell,Valid,14e3,Hvittis,EL6,61.183330,22.683330,11989,61.18333,FALSE,22.68333,1901,worldWars
Fell,Valid,57900,Phillips County (stone),L6,40.000000,-99.250000,18808,40,FALSE,-99.25,1901,worldWars
Fell,Valid,8400,Sindhri,H5,26.216670,69.550000,23611,26.21667,FALSE,69.55,1901,worldWars
Fell,Valid,780,Achiras,L6,-33.166670,-64.950000,370,-33.16667,FALSE,-64.95,1902,worldWars
Fell,Valid,86e3,Bath Furnace,L6,38.250000,-83.750000,4975,38.25,FALSE,-83.75,1902,worldWars
Fell,Valid,8,Caratash,LL6,38.500000,27.000000,5265,38.5,FALSE,27,1902,worldWars
Fell,Valid,4255,Crumlin,L5,54.616670,-6.216670,5477,54.61667,FALSE,-6.21667,1902,worldWars
Fell,Valid,1293,Kamsagar,L6,14.183330,75.800000,12241,14.18333,FALSE,75.8,1902,worldWars
Fell,Valid,45e3,Marjalahti,"Pallasite, PMG",61.500000,30.500000,15426,61.5,FALSE,30.5,1902,worldWars
Fell,Valid,11300,Mount Browne,H6,-29.800000,141.700000,16766,-29.8,FALSE,141.7,1902,worldWars
Fell,Valid,3840,Dokachi,H5,23.500000,90.333330,7658,23.5,FALSE,90.33333,1903,worldWars
Fell,Valid,48e3,Jackalsfontein,L6,-32.500000,21.900000,12065,-32.5,FALSE,21.9,1903,worldWars
Fell,Valid,28.9,Menziswyl,L5,46.818670,7.218170,15486,46.81867,FALSE,7.21817,1903,worldWars
Fell,Valid,668,Rich Mountain,L6,35.033330,-83.033330,22597,35.03333,FALSE,-83.03333,1903,worldWars
Fell,Valid,13780,St. Mark's,EH5,-32.016670,27.416670,23090,-32.01667,FALSE,27.41667,1903,worldWars
Fell,Valid,23.2,Barnaul,H5,52.733330,84.083330,4947,52.73333,FALSE,84.08333,1904,worldWars
Fell,Valid,5700,Gumoschnik,H5,42.900000,24.700000,11450,42.9,FALSE,24.7,1904,worldWars
Fell,Valid,4742,Okano,"Iron, IIAB",35.083330,135.200000,18000,35.08333,FALSE,135.2,1904,worldWars
Fell,Valid,18600,Shelburne,L5,44.050000,-80.166670,23529,44.05,FALSE,-80.16667,1904,worldWars
Fell,Valid,2500,Bholghati,Howardite,22.083330,86.900000,5041,22.08333,FALSE,86.9,1905,worldWars
Fell,Valid,22e3,Karkh,L6,27.800000,67.166670,12262,27.8,FALSE,67.16667,1905,worldWars
Fell,Valid,550,Minnichhof,OC,47.700000,16.600000,16700,47.7,FALSE,16.6,1905,worldWars
Fell,Valid,35e3,Modoc (1905),L6,38.500000,-101.100000,16711,38.5,FALSE,-101.1,1905,worldWars
Fell,Valid,600,Tomakovka,LL6,47.850000,34.766670,24019,47.85,FALSE,34.76667,1905,worldWars
Fell,Valid,2381,Blackwell,L5,36.833330,-97.333330,5068,36.83333,FALSE,-97.33333,1906,worldWars
Fell,Valid,1e3,Diep River,L6,-33.750000,18.566670,7642,-33.75,FALSE,18.56667,1906,worldWars
Fell,Valid,331,Kijima (1906),Stone-uncl,36.850000,138.383330,12305,36.85,FALSE,138.38333,1906,worldWars
Fell,Valid,97.7,Kirbyville,Eucrite-mmict,30.750000,-95.950000,12321,30.75,FALSE,-95.95,1906,worldWars
Fell,Valid,845.2,Krutikha,OC,56.800000,77.000000,12363,56.8,FALSE,77,1906,worldWars
Fell,Valid,3719,Kulp,H6,41.116670,45.000000,12373,41.11667,FALSE,45,1906,worldWars
Fell,Valid,1e3,Bali,CV3,5.383330,16.383330,4928,5.38333,FALSE,16.38333,1907,worldWars
Fell,Valid,8200,Chainpur,LL3.4,25.850000,83.483330,5315,25.85,FALSE,83.48333,1907,worldWars
Fell,Valid,438,Domanitch,L5,40.000000,29.000000,7661,40,FALSE,29,1907,worldWars
Fell,Valid,877,Leighton,H5,34.583330,-87.500000,12760,34.58333,FALSE,-87.5,1907,worldWars
Fell,Valid,1230,Avce,"Iron, IIAB",46.000000,13.500000,4906,46,FALSE,13.5,1908,worldWars
Fell,Valid,1900,Kagarlyk,L6,49.866670,30.833330,12227,49.86667,FALSE,30.83333,1908,worldWars
Fell,Valid,1630,Kangean,H5,-7.000000,115.500000,12245,-7,FALSE,115.5,1908,worldWars
Fell,Valid,4500,Mokoia,CV3,-39.633330,174.400000,16713,-39.63333,FALSE,174.4,1908,worldWars
Fell,Valid,1001,Novy-Projekt,OC,56.000000,22.000000,17935,56,FALSE,22,1908,worldWars
Fell,Valid,350,Sete Lagoas,H4,-19.466670,-44.216670,23504,-19.46667,FALSE,-44.21667,1908,worldWars
Fell,Valid,5100,Blanket,L6,31.833330,-98.833330,5071,31.83333,FALSE,-98.83333,1909,worldWars
Fell,Valid,14290,Gifu,L6,35.533330,136.883330,10914,35.53333,FALSE,136.88333,1909,worldWars
Fell,Valid,4500,Baroti,L6,31.616670,76.800000,4949,31.61667,FALSE,76.8,1910,worldWars
Fell,Valid,690,Grzempach,H5,52.866670,16.633330,11429,52.86667,FALSE,16.63333,1910,worldWars
Fell,Valid,1110.6,Hashima,H4,35.294500,136.700330,11848,35.2945,FALSE,136.70033,1910,worldWars
Fell,Valid,6100,Hedjaz,L3.7-6,27.333330,35.666670,11870,27.33333,FALSE,35.66667,1910,worldWars
Fell,Valid,9700,Khohar,L3.6,25.100000,81.533330,12298,25.1,FALSE,81.53333,1910,worldWars
Fell,Valid,212.5,Lakangaon,Eucrite-mmict,21.866670,76.033330,12435,21.86667,FALSE,76.03333,1910,worldWars
Fell,Valid,8510,Mirzapur,L5,25.683330,83.250000,16701,25.68333,FALSE,83.25,1910,worldWars
Fell,Valid,515,Paitan,H6,17.743330,120.455830,18072,17.74333,FALSE,120.45583,1910,worldWars
Fell,Valid,NA,Palahatchie,OC,32.316670,-89.716670,18073,32.31667,FALSE,-89.71667,1910,worldWars
Fell,Valid,17e3,St. Michel,L6,61.650000,27.200000,23093,61.65,FALSE,27.2,1910,worldWars
Fell,Valid,16400,Demina,L6,51.466670,84.766670,6649,51.46667,FALSE,84.76667,1911,worldWars
Fell,Valid,107.2,Erevan,Howardite,40.300000,44.500000,10043,40.3,FALSE,44.5,1911,worldWars
Fell,Valid,772,Kilbourn,H5,43.583330,-89.600000,12308,43.58333,FALSE,-89.6,1911,worldWars
Fell,Valid,1e4,Nakhla,Martian (nakhlite),31.316670,30.350000,16898,31.31667,FALSE,30.35,1911,worldWars
Fell,Valid,7.7,Tonk,CI1,24.650000,76.866670,24026,24.65,FALSE,76.86667,1911,worldWars
Fell,Valid,22e4,Holbrook,L/LL6,34.900000,-110.183330,11894,34.9,FALSE,-110.18333,1912,worldWars
Fell,Valid,460,Leeuwfontein,L6,-25.666670,28.366670,12756,-25.66667,FALSE,28.36667,1912,worldWars
Fell,Valid,17200,N'Kandhla,"Iron, IID",-28.566670,30.700000,16983,-28.56667,FALSE,30.7,1912,worldWars
Fell,Valid,5e3,Shupiyan,H6,33.716670,74.833330,23583,33.71667,FALSE,74.83333,1912,worldWars
Fell,Valid,14,Banswal,L5,30.400000,78.200000,4937,30.4,FALSE,78.2,1913,worldWars
Fell,Valid,448,Kamiomi,H5,36.041670,139.956670,12240,36.04167,FALSE,139.95667,1913,worldWars
Fell,Valid,1880,Moore County,Eucrite-cm,35.416670,-79.383330,16736,35.41667,FALSE,-79.38333,1913,worldWars
Fell,Valid,4180,Sakauchi,Iron,35.666670,136.300000,23103,35.66667,FALSE,136.3,1913,worldWars
Fell,Valid,15e3,Appley Bridge,LL6,53.583330,-2.716670,2318,53.58333,FALSE,-2.71667,1914,worldWars
Fell,Valid,1550,Kisvarsány,L6,48.166670,22.308330,12325,48.16667,FALSE,22.30833,1914,worldWars
Fell,Valid,45e3,Kuttippuram,L6,10.833330,76.033330,12384,10.83333,FALSE,76.03333,1914,worldWars
Fell,Valid,1100,Nyirábrany,LL5,47.550000,22.025000,17970,47.55,FALSE,22.025,1914,worldWars
Fell,Valid,18e3,Palinshih,Iron,43.483330,118.616670,18077,43.48333,FALSE,118.61667,1914,worldWars
Fell,Valid,13e3,Ryechki,L5,51.133330,34.500000,22791,51.13333,FALSE,34.5,1914,worldWars
Fell,Valid,14e3,Saint-Sauveur,EH5,43.733330,1.383330,23101,43.73333,FALSE,1.38333,1914,worldWars
Fell,Valid,24750,Meester-Cornelis,H5,-6.233330,106.883330,15470,-6.23333,FALSE,106.88333,1915,worldWars
Fell,Valid,611,Baxter,L6,36.750000,-93.500000,4977,36.75,FALSE,-93.5,1916,worldWars
Fell,Valid,256e3,Boguslavka,"Iron, IIAB",44.550000,131.633330,5098,44.55,FALSE,131.63333,1916,worldWars
Fell,Valid,2400,Calivo,Stone-uncl,11.750000,122.333330,5200,11.75,FALSE,122.33333,1916,worldWars
Fell,Valid,840,Ekh Khera,H6,28.266670,78.783330,7777,28.26667,FALSE,78.78333,1916,worldWars
Fell,Valid,100,Rampurhat,LL,24.166670,87.766670,22385,24.16667,FALSE,87.76667,1916,worldWars
Fell,Valid,355,Renqiu,L6,38.666670,116.133330,22589,38.66667,FALSE,116.13333,1916,worldWars
Fell,Valid,1455,Sinai,L6,30.900000,32.483330,23606,30.9,FALSE,32.48333,1916,worldWars
Fell,Valid,1710.5,Sultanpur,L/LL6,25.933330,84.283330,23741,25.93333,FALSE,84.28333,1916,worldWars
Fell,Valid,600,Tomita,L,34.500000,133.750000,24023,34.5,FALSE,133.75,1916,worldWars
Fell,Valid,104e3,Colby (Wisconsin),L6,44.900000,-90.283330,5395,44.9,FALSE,-90.28333,1917,worldWars
Fell,Valid,1460,Cranganore,L6,10.200000,76.266670,5465,10.2,FALSE,76.26667,1917,worldWars
Fell,Valid,380,Garhi Yasin,"Iron, IIE",27.883330,68.533330,10860,27.88333,FALSE,68.53333,1917,worldWars
Fell,Valid,880,Independence,L6,39.083330,-94.400000,12028,39.08333,FALSE,-94.4,1917,worldWars
Fell,Valid,52900,Nan Yang Pao,L6,35.666670,103.500000,16903,35.66667,FALSE,103.5,1917,worldWars
Fell,Valid,290.4,Ranchapur,H4,23.983330,87.083330,22387,23.98333,FALSE,87.08333,1917,worldWars
Fell,Valid,240,Sediköy,L6,38.300000,27.133330,23473,38.3,FALSE,27.13333,1917,worldWars
Fell,Valid,0.15,Silistra,Achondrite-ung,44.116670,27.266670,55584,44.11667,FALSE,27.26667,1917,worldWars
Fell,Valid,13400,Strathmore,L6,56.583330,-3.250000,23729,56.58333,FALSE,-3.25,1917,worldWars
Fell,Valid,152e3,Glasatovo,H4,57.350000,37.616670,10926,57.35,FALSE,37.61667,1918,worldWars
Fell,Valid,1050,Norfork,"Iron, IIIAB",36.216670,-92.266670,16994,36.21667,FALSE,-92.26667,1918,worldWars
Fell,Valid,9e4,Richardton,H5,46.883330,-102.316670,22599,46.88333,FALSE,-102.31667,1918,worldWars
Fell,Valid,2e5,Saratov,L4,52.550000,46.550000,23176,52.55,FALSE,46.55,1918,worldWars
Fell,Valid,905,Tané,L5,35.433330,136.233330,23801,35.43333,FALSE,136.23333,1918,worldWars
Fell,Valid,4239,Adhi Kot,EH4,32.100000,71.800000,379,32.1,FALSE,71.8,1919,worldWars
Fell,Valid,12e4,Bur-Gheluai,H5,5.000000,48.000000,5169,5,FALSE,48,1919,worldWars
Fell,Valid,212,Cacak,OC,43.838890,20.333330,5187,43.83889,FALSE,20.33333,1919,worldWars
Fell,Valid,17e3,Cumberland Falls,Aubrite,36.833330,-84.350000,5496,36.83333,FALSE,-84.35,1919,worldWars
Fell,Valid,4910,Raoyang,L6,38.200000,115.700000,22394,38.2,FALSE,115.7,1919,worldWars
Fell,Valid,1e4,Rembang,"Iron, IVA",-6.733330,111.366670,22585,-6.73333,FALSE,111.36667,1919,worldWars
Fell,Valid,24.3,St. Mary's County,LL3.3,38.166670,-76.383330,23091,38.16667,FALSE,-76.38333,1919,worldWars
Fell,Valid,1440,Aguila Blanca,L,-30.866670,-64.550000,417,-30.86667,FALSE,-64.55,1920,worldWars
Fell,Valid,1280,Atarra,L4,25.254170,80.625000,4883,25.25417,FALSE,80.625,1920,worldWars
Fell,Valid,4460,Kushiike,OC,37.050000,138.383330,12381,37.05,FALSE,138.38333,1920,worldWars
Fell,Valid,71400,Merua,H5,25.483330,81.983330,15492,25.48333,FALSE,81.98333,1920,worldWars
Fell,Valid,1222,Simmern,H5,49.983330,7.533330,23603,49.98333,FALSE,7.53333,1920,worldWars
Fell,Valid,1100,Beyrout,LL3.8,33.883330,35.500000,5035,33.88333,FALSE,35.5,1921,worldWars
Fell,Valid,315,Haripura,CM2,28.383330,75.783330,11829,28.38333,FALSE,75.78333,1921,worldWars
Fell,Valid,3760,Pitts,"Iron, IAB-ung",31.950000,-83.516670,18837,31.95,FALSE,-83.51667,1921,worldWars
Fell,Valid,10600,Rose City,H5,44.516670,-83.950000,22766,44.51667,FALSE,-83.95,1921,worldWars
Fell,Valid,2462,Samelia,"Iron, IIIAB",25.666670,74.866670,23115,25.66667,FALSE,74.86667,1921,worldWars
Fell,Valid,1265,Sharps,H3.4,37.833330,-76.700000,23525,37.83333,FALSE,-76.7,1921,worldWars
Fell,Valid,3679.7,Shikarpur,L6,25.850000,87.577500,23534,25.85,FALSE,87.5775,1921,worldWars
Fell,Valid,345,Baldwyn,L6,34.500000,-88.666670,4926,34.5,FALSE,-88.66667,1922,worldWars
Fell,Valid,3640,Florence,H3,30.833330,-97.766670,10111,30.83333,FALSE,-97.76667,1922,worldWars
Fell,Valid,3500,Hedeskoga,H5,55.466670,13.783330,11869,55.46667,FALSE,13.78333,1922,worldWars
Fell,Valid,1810,Nagai,L6,38.121670,140.061670,16890,38.12167,FALSE,140.06167,1922,worldWars
Fell,Valid,12,Patti,Iron,38.133330,14.966670,18118,38.13333,FALSE,14.96667,1922,worldWars
Fell,Valid,16500,Tjerebon,L5,-6.666670,106.583330,24012,-6.66667,FALSE,106.58333,1922,worldWars
Fell,Valid,1300,Ashdon,L6,52.050000,0.300000,2346,52.05,FALSE,0.3,1923,worldWars
Fell,Valid,560,Birni N'konni,H4,13.766670,5.300000,5056,13.76667,FALSE,5.3,1923,worldWars
Fell,Valid,1415,Holetta,Stone-uncl,9.066670,38.416670,11895,9.06667,FALSE,38.41667,1923,worldWars
Fell,Valid,149e3,Montferré,H5,43.390560,1.962500,16727,43.39056,FALSE,1.9625,1923,worldWars
Fell,Valid,23200,Nakhon Pathom,L6,13.733330,100.083330,16899,13.73333,FALSE,100.08333,1923,worldWars
Fell,Valid,1800,Serra de Magé,Eucrite-cm,-8.383330,-36.766670,23502,-8.38333,FALSE,-36.76667,1923,worldWars
Fell,Valid,18e3,Béréba,Eucrite-mmict,11.650000,-3.650000,5028,11.65,FALSE,-3.65,1924,worldWars
Fell,Valid,82,Fenghsien-Ku,H5,34.600000,116.750000,10086,34.6,FALSE,116.75,1924,worldWars
Fell,Valid,6067,Forksville,L6,36.783330,-78.083330,10123,36.78333,FALSE,-78.08333,1924,worldWars
Fell,Valid,40300,Johnstown,Diogenite,40.350000,-104.900000,12198,40.35,FALSE,-104.9,1924,worldWars
Fell,Valid,2e3,La Colina,H5,-37.333330,-61.533330,12395,-37.33333,FALSE,-61.53333,1924,worldWars
Fell,Valid,4703,Muraid,L6,24.500000,90.216670,16874,24.5,FALSE,90.21667,1924,worldWars
Fell,Valid,15e4,Olivenza,LL5,38.716670,-7.066670,18013,38.71667,FALSE,-7.06667,1924,worldWars
Fell,Valid,5500,Santa Isabel,L6,-33.900000,-61.700000,23165,-33.9,FALSE,-61.7,1924,worldWars
Fell,Valid,3500,Success,L6,36.483330,-90.666670,23736,36.48333,FALSE,-90.66667,1924,worldWars
Fell,Valid,24e3,Aïr,L6,19.083330,8.383330,424,19.08333,FALSE,8.38333,1925,worldWars
Fell,Valid,2945,Chaves,Howardite,41.933330,-7.466670,5334,41.93333,FALSE,-7.46667,1925,worldWars
Fell,Valid,1470,Ellemeet,Diogenite,51.750000,4.000000,10019,51.75,FALSE,4,1925,worldWars
Fell,Valid,7e3,Lanzenkirchen,L4,47.750000,16.233330,12465,47.75,FALSE,16.23333,1925,worldWars
Fell,Valid,363,Numakai,H4,43.333330,141.866670,17960,43.33333,FALSE,141.86667,1925,worldWars
Fell,Valid,7e3,Queen's Mercy,H6,-30.116670,28.700000,22357,-30.11667,FALSE,28.7,1925,worldWars
Fell,Valid,300,Renca,L5,-32.750000,-65.283330,22587,-32.75,FALSE,-65.28333,1925,worldWars
Fell,Valid,973,Jajh deh Kot Lalu,EL6,26.750000,68.416670,12067,26.75,FALSE,68.41667,1926,worldWars
Fell,Valid,238,Komagome,Iron,35.733330,139.750000,12343,35.73333,FALSE,139.75,1926,worldWars
Fell,Valid,9241,Lua,L5,24.950000,75.150000,14721,24.95,FALSE,75.15,1926,worldWars
Fell,Valid,5850,Ojuelos Altos,L6,38.183330,-5.400000,17997,38.18333,FALSE,-5.4,1926,worldWars
Fell,Valid,135,Palmyra,L3,39.800000,-91.500000,18079,39.8,FALSE,-91.5,1926,worldWars
Fell,Valid,1e3,Mamra Springs,L6,45.216670,62.083330,15401,45.21667,FALSE,62.08333,1927,worldWars
Fell,Valid,1400,Oesede,H5,52.283330,8.050000,17988,52.28333,FALSE,8.05,1927,worldWars
Fell,Valid,958,Sopot,OC,44.416670,23.500000,23670,44.41667,FALSE,23.5,1927,worldWars
Fell,Valid,74800,Tilden,L6,38.200000,-89.683330,23998,38.2,FALSE,-89.68333,1927,worldWars
Fell,Valid,3050,Isthilart,H5,-31.183330,-57.950000,12053,-31.18333,FALSE,-57.95,1928,worldWars
Fell,Valid,17e3,Naoki,H6,19.250000,77.000000,16908,19.25,FALSE,77,1928,worldWars
Fell,Valid,367.5,Narellan,L6,-34.050000,150.688890,16912,-34.05,FALSE,150.68889,1928,worldWars
Fell,Valid,246,Oterøy,L6,58.883330,9.400000,18042,58.88333,FALSE,9.4,1928,worldWars
Fell,Valid,3700,Bald Mountain,L4,35.966670,-82.483330,4925,35.96667,FALSE,-82.48333,1929,worldWars
Fell,Valid,16e3,Beardsley,H5,39.800000,-101.200000,4984,39.8,FALSE,-101.2,1929,worldWars
Fell,Valid,6109,Khmelevka,L5,56.750000,75.333330,12297,56.75,FALSE,75.33333,1929,worldWars
Fell,Valid,4e4,Olmedilla de Alarcón,H5,39.566670,-2.100000,18015,39.56667,FALSE,-2.1,1929,worldWars
Fell,Valid,3858,Padvarninkai,Eucrite-mmict,55.666670,25.000000,18069,55.66667,FALSE,25,1929,worldWars
Fell,Valid,3332,Rewari,L6,28.200000,76.666670,22593,28.2,FALSE,76.66667,1929,worldWars
Fell,Valid,6e3,Tauk,L6,35.133330,44.450000,23887,35.13333,FALSE,44.45,1929,worldWars
Fell,Valid,1620,Aguada,L6,-31.600000,-65.233330,398,-31.6,FALSE,-65.23333,1930,worldWars
Fell,Valid,1342,Boriskino,CM2,54.233330,52.483330,5112,54.23333,FALSE,52.48333,1930,worldWars
Fell,Valid,1320,Gyokukei,OC,35.000000,127.500000,11467,35,FALSE,127.5,1930,worldWars
Fell,Valid,41730,Karoonda,CK4,-35.083330,139.916670,12264,-35.08333,FALSE,139.91667,1930,worldWars
Fell,Valid,6862,Lillaverke,H5,56.650000,15.866670,14650,56.65,FALSE,15.86667,1930,worldWars
Fell,Valid,470,Malampaka,H,-3.133330,33.516670,15395,-3.13333,FALSE,33.51667,1930,worldWars
Fell,Valid,16700,Miller (Arkansas),H5,35.400000,-92.050000,16645,35.4,FALSE,-92.05,1930,worldWars
Fell,Valid,8887.5,Moorleah,L6,-40.975000,145.600000,16738,-40.975,FALSE,145.6,1930,worldWars
Fell,Valid,16570,Oldenburg (1930),L6,52.950000,8.166670,18009,52.95,FALSE,8.16667,1930,worldWars
Fell,Valid,408e3,Paragould,LL5,36.066670,-90.500000,18101,36.06667,FALSE,-90.5,1930,worldWars
Fell,Valid,2085,Plantersville,H6,30.700000,-96.116670,18846,30.7,FALSE,-96.11667,1930,worldWars
Fell,Valid,90,Konovo,LL5,42.516670,26.166670,12344,42.51667,FALSE,26.16667,1931,worldWars
Fell,Valid,NA,Malotas,H5,-28.933330,-63.233330,15397,-28.93333,FALSE,-63.23333,1931,worldWars
Fell,Valid,157,Pontlyfni,Winonaite,53.036390,-4.319440,18865,53.03639,FALSE,-4.31944,1931,worldWars
Fell,Valid,12e3,Tatahouine,Diogenite,32.950000,10.416670,23884,32.95,FALSE,10.41667,1931,worldWars
Fell,Valid,5070,Archie,H6,38.500000,-94.300000,2329,38.5,FALSE,-94.3,1932,worldWars
Fell,Valid,1161,Douar Mghila,LL6,32.333330,-6.300000,7723,32.33333,FALSE,-6.3,1932,worldWars
Fell,Valid,22e3,Gualeguaychú,H6,-33.000000,-58.616670,11432,-33,FALSE,-58.61667,1932,worldWars
Fell,Valid,3698,Khanpur,LL5,25.550000,83.116670,12289,25.55,FALSE,83.11667,1932,worldWars
Fell,Valid,3200,Khor Temiki,Aubrite,16.000000,36.000000,12299,16,FALSE,36,1932,worldWars
Fell,Valid,4047,Kuznetzovo,L6,55.200000,75.333330,12385,55.2,FALSE,75.33333,1932,worldWars
Fell,Valid,2125,Prambachkirchen,L6,48.302500,13.940830,18883,48.3025,FALSE,13.94083,1932,worldWars
Fell,Valid,265,Athens,LL6,34.750000,-87.000000,4885,34.75,FALSE,-87,1933,worldWars
Fell,Valid,629,Banten,CM2,-6.333330,106.000000,4938,-6.33333,FALSE,106,1933,worldWars
Fell,Valid,219,Brient,Eucrite-pmict,52.133330,59.316670,5140,52.13333,FALSE,59.31667,1933,worldWars
Fell,Valid,18300,Chajari,L5,-30.783330,-58.050000,5316,-30.78333,FALSE,-58.05,1933,worldWars
Fell,Valid,8400,Cherokee Springs,LL6,35.033330,-81.883330,5340,35.03333,FALSE,-81.88333,1933,worldWars
Fell,Valid,188,Dyarrl Island,Mesosiderite-A1,-3.000000,151.000000,7758,-3,FALSE,151,1933,worldWars
Fell,Valid,150,Malaga,OC,32.216670,-104.000000,15393,32.21667,FALSE,-104,1933,worldWars
Fell,Valid,807,Malvern,Eucrite-pmict,-29.450000,26.766670,15400,-29.45,FALSE,26.76667,1933,worldWars
Fell,Valid,250,Noyan-Bogdo,L6,42.916670,102.466670,17936,42.91667,FALSE,102.46667,1933,worldWars
Fell,Valid,5100,Pasamonte,Eucrite-pmict,36.216670,-103.400000,18110,36.21667,FALSE,-103.4,1933,worldWars
Fell,Valid,66e3,Pervomaisky,L6,56.633330,39.433330,18798,56.63333,FALSE,39.43333,1933,worldWars
Fell,Valid,3393,Pesyanoe,Aubrite,55.500000,66.083330,18799,55.5,FALSE,66.08333,1933,worldWars
Fell,Valid,7800,Phum Sambo,H4,12.000000,105.483330,18811,12,FALSE,105.48333,1933,worldWars
Fell,Valid,665,Po-wang Chen,LL,31.416670,118.500000,18879,31.41667,FALSE,118.5,1933,worldWars
Fell,Valid,7e3,Repeev Khutor,"Iron, IIF",48.600000,45.666670,22590,48.6,FALSE,45.66667,1933,worldWars
Fell,Valid,4100,Sioux County,Eucrite-mmict,42.583330,-103.666670,23614,42.58333,FALSE,-103.66667,1933,worldWars
Fell,Valid,10322,Bahjoi,"Iron, IAB-sLL",28.483330,78.500000,4922,28.48333,FALSE,78.5,1934,worldWars
Fell,Valid,750,Capilla del Monte,H6,-30.883330,-64.550000,5264,-30.88333,FALSE,-64.55,1934,worldWars
Fell,Valid,56e3,Farmville,H4,35.550000,-77.533330,10075,35.55,FALSE,-77.53333,1934,worldWars
Fell,Valid,2360,Fayetteville,H4,36.050000,-94.166670,10079,36.05,FALSE,-94.16667,1934,worldWars
Fell,Valid,9e3,Hainaut,H3-6,50.316670,3.733330,11472,50.31667,FALSE,3.73333,1934,worldWars
Fell,Valid,22300,Mangwendi,LL6,-17.650000,31.600000,15405,-17.65,FALSE,31.6,1934,worldWars
Fell,Valid,1310,Rio Negro,L4,-26.100000,-49.800000,22611,-26.1,FALSE,-49.8,1934,worldWars
Fell,Valid,67,Rumuruti,R3.8-6,0.266670,36.533330,22782,0.26667,FALSE,36.53333,1934,worldWars
Fell,Valid,412,Sazovice,L5,49.233330,17.566670,23455,49.23333,FALSE,17.56667,1934,worldWars
Fell,Valid,230,Tirupati,H6,13.633330,79.416670,24009,13.63333,FALSE,79.41667,1934,worldWars
Fell,Valid,59e3,Łowicz,Mesosiderite-A3,52.000000,19.916670,14718,52,FALSE,19.91667,1935,worldWars
Fell,Valid,400,Madiun,L6,-7.750000,111.533330,15380,-7.75,FALSE,111.53333,1935,worldWars
Fell,Valid,3996,Nikolaevka,H4,52.450000,78.633330,16976,52.45,FALSE,78.63333,1935,worldWars
Fell,Valid,37350,Patwar,Mesosiderite-A1,23.150000,91.183330,18171,23.15,FALSE,91.18333,1935,worldWars
Fell,Valid,23474,Perpeti,L6,23.325000,91.000000,18793,23.325,FALSE,91,1935,worldWars
Fell,Valid,637,Sungach,H5,44.866670,133.166670,23745,44.86667,FALSE,133.16667,1935,worldWars
Fell,Valid,78.4,Crescent,CM2,35.950000,-97.583330,5470,35.95,FALSE,-97.58333,1936,worldWars
Fell,Valid,3973,Ichkala,H6,58.200000,82.933330,11995,58.2,FALSE,82.93333,1936,worldWars
Fell,Valid,1995,Macibini,Eucrite-pmict,-28.833330,31.950000,15372,-28.83333,FALSE,31.95,1936,worldWars
Fell,Valid,347,Nassirah,H4,-21.733330,165.900000,16922,-21.73333,FALSE,165.9,1936,worldWars
Fell,Valid,NA,Belville,OC,-32.333330,-64.866670,5009,-32.33333,FALSE,-64.86667,1937,worldWars
Fell,Valid,2e5,Kainsaz,CO3.2,55.433330,53.250000,12229,55.43333,FALSE,53.25,1937,worldWars
Fell,Valid,3500,Kaptal-Aryk,L6,42.450000,73.366670,12253,42.45,FALSE,73.36667,1937,worldWars
Fell,Valid,540,Mabwe-Khoywa,L5,19.000000,97.000000,14764,19,FALSE,97,1937,worldWars
Fell,Valid,3e5,Putinga,L6,-29.033330,-53.050000,18905,-29.03333,FALSE,-53.05,1937,worldWars
Fell,Valid,3224.5,Rangala,L6,25.383330,72.016670,22392,25.38333,FALSE,72.01667,1937,worldWars
Fell,Valid,21e3,Tauti,L6,46.716670,23.500000,23888,46.71667,FALSE,23.5,1937,worldWars
Fell,Valid,2830,Aztec,L6,36.800000,-108.000000,4913,36.8,FALSE,-108,1938,worldWars
Fell,Valid,1770.5,Benld,H6,39.083330,-89.150000,5021,39.08333,FALSE,-89.15,1938,worldWars
Fell,Valid,67.8,Bloomington,LL6,40.480000,-89.004170,5076,40.48,FALSE,-89.00417,1938,worldWars
Fell,Valid,303,Chicora,LL6,40.933330,-79.733330,5349,40.93333,FALSE,-79.73333,1938,worldWars
Fell,Valid,704.5,Ivuna,CI1,-8.416670,32.433330,12063,-8.41667,FALSE,32.43333,1938,worldWars
Fell,Valid,710,Kasamatsu,H,35.366670,136.766670,12266,35.36667,FALSE,136.76667,1938,worldWars
Fell,Valid,2250,Kukschin,L6,51.150000,31.700000,12368,51.15,FALSE,31.7,1938,worldWars
Fell,Valid,800,Lavrentievka,L6,52.450000,51.566670,12743,52.45,FALSE,51.56667,1938,worldWars
Fell,Valid,2130,Pantar,H5,8.066670,124.283330,18098,8.06667,FALSE,124.28333,1938,worldWars
Fell,Valid,142.5,Pavlodar (stone),H5,52.300000,77.033330,18175,52.3,FALSE,77.03333,1938,worldWars
Fell,Valid,17900,Andura,H6,20.883330,76.866670,2298,20.88333,FALSE,76.86667,1939,worldWars
Fell,Valid,1700,Chervony Kut,Eucrite-mmict,50.833330,34.000000,5342,50.83333,FALSE,34,1939,worldWars
Fell,Valid,47700,Dresden (Ontario),H6,42.520000,-82.260000,7731,42.52,FALSE,-82.26,1939,worldWars
Fell,Valid,3336,Ekeby,H4,56.033330,13.000000,7776,56.03333,FALSE,13,1939,worldWars
Fell,Valid,1303,Glanggang,H5-6,-7.250000,107.700000,10924,-7.25,FALSE,107.7,1939,worldWars
Fell,Valid,6937,Kendleton,L4,29.450000,-96.000000,12275,29.45,FALSE,-96,1939,worldWars
Fell,Valid,737.6,Nyaung,"Iron, IIIAB",21.208330,94.916670,17969,21.20833,FALSE,94.91667,1939,worldWars
Fell,Valid,60,Santa Cruz,CM2,24.166670,-99.333330,23164,24.16667,FALSE,-99.33333,1939,worldWars
Fell,Valid,1590,Selakopi,H5,-7.233330,107.333330,23481,-7.23333,FALSE,107.33333,1939,worldWars
Fell,Valid,1047,Bhola,LL3-6,22.683330,90.650000,5040,22.68333,FALSE,90.65,1940,worldWars
Fell,Valid,113,Erakot,CM2,19.033330,81.891670,10042,19.03333,FALSE,81.89167,1940,worldWars
Fell,Valid,3300,Kediri,L4,-7.750000,112.016670,12270,-7.75,FALSE,112.01667,1940,worldWars
Fell,Valid,3766,Ramnagar,L6,26.450000,82.900000,22384,26.45,FALSE,82.9,1940,worldWars
Fell,Valid,691,Semarkona,LL3.00,22.250000,79.000000,23487,22.25,FALSE,79,1940,worldWars
Fell,Valid,705,Black Moshannan Park,L5,40.916670,-78.083330,5065,40.91667,FALSE,-78.08333,1941,worldWars
Fell,Valid,600,Mafra,L3-4,-26.166670,-49.933330,15383,-26.16667,FALSE,-49.93333,1941,worldWars
Fell,Valid,3200,Maridi,H6,4.666670,29.250000,15421,4.66667,FALSE,29.25,1941,worldWars
Fell,Valid,11e3,Phuoc-Binh,L5,15.716670,108.100000,18812,15.71667,FALSE,108.1,1941,worldWars
Fell,Valid,6500,Ankober,H4,9.533330,39.716670,2304,9.53333,FALSE,39.71667,1942,worldWars
Fell,Valid,357,Bununu,Howardite,10.016670,9.583330,5165,10.01667,FALSE,9.58333,1942,worldWars
Fell,Valid,26e3,Forest Vale,H4,-33.350000,146.858330,10120,-33.35,FALSE,146.85833,1942,worldWars
Fell,Valid,2770,Kamalpur,L6,26.033330,81.466670,12238,26.03333,FALSE,81.46667,1942,worldWars
Fell,Valid,11355,Kapoeta,Howardite,4.700000,33.633330,12251,4.7,FALSE,33.63333,1942,worldWars
Fell,Valid,4975,Maziba,L6,-1.216670,30.000000,15454,-1.21667,FALSE,30,1942,worldWars
Fell,Valid,800,Parsa,EH3,26.200000,85.400000,18109,26.2,FALSE,85.4,1942,worldWars
Fell,Valid,253.6,Pollen,CM2,66.348330,14.015000,18860,66.34833,FALSE,14.015,1942,worldWars
Fell,Valid,3880,Benoni,H6,-26.166670,28.416670,5023,-26.16667,FALSE,28.41667,1943,worldWars
Fell,Valid,2117,Duwun,L6,33.433330,127.266670,7754,33.43333,FALSE,127.26667,1943,worldWars
Fell,Valid,51500,Leedey,L6,35.883330,-99.333330,12755,35.88333,FALSE,-99.33333,1943,worldWars
Fell,Valid,NA,Fort Flatters,Stone-uncl,28.250000,7.000000,10166,28.25,FALSE,7,1944,worldWars
Fell,Valid,1456,Hallingeberg,L3.4,57.816670,16.233330,11479,57.81667,FALSE,16.23333,1944,worldWars
Fell,Valid,224.2,Mike,L6,46.233330,17.533330,16636,46.23333,FALSE,17.53333,1944,worldWars
Fell,Valid,1100,Mtola,Stone-uncl,-11.500000,33.500000,16820,-11.5,FALSE,33.5,1944,worldWars
Fell,Valid,1384.2,Atoka,L6,34.316670,-96.150000,4888,34.31667,FALSE,-96.15,1945,worldWars
Fell,Valid,23e3,Fuhe,L5,31.475560,113.566940,52412,31.47556,FALSE,113.56694,1945,worldWars
Fell,Valid,6e3,Meru,LL6,0.000000,37.666670,15491,0,FALSE,37.66667,1945,worldWars
Fell,Valid,2050,Soroti,"Iron, ungrouped",1.700000,33.633330,23671,1.7,FALSE,33.63333,1945,worldWars
Fell,Valid,25e3,Bursa,L6,40.200000,29.233330,5177,40.2,FALSE,29.23333,1946,atomicAge
Fell,Valid,4e3,Krasnyi Klyuch,H5,54.333330,56.083330,12357,54.33333,FALSE,56.08333,1946,atomicAge
Fell,Valid,5e4,Krymka,LL3.2,47.833330,30.766670,12364,47.83333,FALSE,30.76667,1946,atomicAge
Fell,Valid,7e4,Peña Blanca Spring,Aubrite,30.125000,-103.116670,18786,30.125,FALSE,-103.11667,1946,atomicAge
Fell,Valid,1e4,Eagle,EL6,40.781670,-96.471670,7760,40.78167,FALSE,-96.47167,1947,atomicAge
Fell,Valid,480,Git-Git,L6,9.600000,9.916670,10919,9.6,FALSE,9.91667,1947,atomicAge
Fell,Valid,2300,Långhalsen,L6,58.850000,16.733330,12461,58.85,FALSE,16.73333,1947,atomicAge
Fell,Valid,17300,Reliegos,L5,42.475000,-5.333330,22584,42.475,FALSE,-5.33333,1947,atomicAge
Fell,Valid,150,Seldebourak,H5,22.833330,4.983330,23483,22.83333,FALSE,4.98333,1947,atomicAge
Fell,Valid,23e6,Sikhote-Alin,"Iron, IIAB",46.160000,134.653330,23593,46.16,FALSE,134.65333,1947,atomicAge
Fell,Valid,4500,Mardan,H5,34.233330,72.083330,15414,34.23333,FALSE,72.08333,1948,atomicAge
Fell,Valid,11e5,Norton County,Aubrite,39.683330,-99.866670,17922,39.68333,FALSE,-99.86667,1948,atomicAge
Fell,Valid,910,Adzhi-Bogdo (stone),LL3-6,44.833330,95.166670,390,44.83333,FALSE,95.16667,1949,atomicAge
Fell,Valid,779,Akaba,L6,29.516670,35.050000,426,29.51667,FALSE,35.05,1949,atomicAge
Fell,Valid,625,Alberta,L,2.000000,22.666670,454,2,FALSE,22.66667,1949,atomicAge
Fell,Valid,794,Beddgelert,H5,53.016670,-4.100000,4993,53.01667,FALSE,-4.1,1949,atomicAge
Fell,Valid,2840,Benton,LL6,45.950000,-67.550000,5026,45.95,FALSE,-67.55,1949,atomicAge
Fell,Valid,968,Guidder,LL5,9.916670,13.983330,11443,9.91667,FALSE,13.98333,1949,atomicAge
Fell,Valid,NA,Ibrisim,OC,38.000000,35.000000,11994,38,FALSE,35,1949,atomicAge
Fell,Valid,180,Karewar,L6,12.900000,7.150000,12260,12.9,FALSE,7.15,1949,atomicAge
Fell,Valid,2e5,Kunashak,L6,55.783330,61.366670,12377,55.78333,FALSE,61.36667,1949,atomicAge
Fell,Valid,1300,Mezel,L6,45.766670,3.250000,16627,45.76667,FALSE,3.25,1949,atomicAge
Fell,Valid,682,Palolo Valley,H5,21.300000,-157.783330,18082,21.3,FALSE,-157.78333,1949,atomicAge
Fell,Valid,6e3,Rupota,L4-6,-10.266670,38.766670,22783,-10.26667,FALSE,38.76667,1949,atomicAge
Fell,Valid,7450,Arroyo Aguiar,H5,-31.416670,-60.666670,2340,-31.41667,FALSE,-60.66667,1950,atomicAge
Fell,Valid,102,Garland,Diogenite-pm,41.683330,-112.133330,10861,41.68333,FALSE,-112.13333,1950,atomicAge
Fell,Valid,725,Geidam,H5,12.916670,11.916670,10870,12.91667,FALSE,11.91667,1950,atomicAge
Fell,Valid,1e3,Madhipura,L,25.916670,86.366670,15379,25.91667,FALSE,86.36667,1950,atomicAge
Fell,Valid,4885,Monte das Fortes,L5,38.016670,-8.250000,16725,38.01667,FALSE,-8.25,1950,atomicAge
Fell,Valid,NA,Monze,L6,-15.966670,27.350000,16733,-15.96667,FALSE,27.35,1950,atomicAge
Fell,Valid,12600,Murray,CM2,36.600000,-88.100000,16882,36.6,FALSE,-88.1,1950,atomicAge
Fell,Valid,2121,Patrimonio,L6,-19.533330,-48.566670,18116,-19.53333,FALSE,-48.56667,1950,atomicAge
Fell,Valid,1e3,St. Louis,H4,38.700000,-90.233330,23089,38.7,FALSE,-90.23333,1950,atomicAge
Fell,Valid,342,Thal,H6,33.400000,70.600000,23908,33.4,FALSE,70.6,1950,atomicAge
Fell,Valid,720,Aarhus,H6,56.183330,10.233330,2,56.18333,FALSE,10.23333,1951,atomicAge
Fell,Valid,1900,Dubrovnik,L3-6,42.458330,18.441670,7736,42.45833,FALSE,18.44167,1951,atomicAge
Fell,Valid,54640,Elenovka,L5,47.833330,37.666670,7824,47.83333,FALSE,37.66667,1951,atomicAge
Fell,Valid,950,Kalaba,H4,-6.833330,29.500000,12232,-6.83333,FALSE,29.5,1951,atomicAge
Fell,Valid,NA,Lusaka,Unknown,-7.216670,29.433330,14759,-7.21667,FALSE,29.43333,1951,atomicAge
Fell,Valid,3555,Manych,LL3.4,45.816670,44.633330,15409,45.81667,FALSE,44.63333,1951,atomicAge
Fell,Valid,107e3,Abee,EH4,54.216670,-113.000000,6,54.21667,FALSE,-113,1952,atomicAge
Fell,Valid,9330,Avanhandava,H4,-21.460280,-49.950830,4905,-21.46028,FALSE,-49.95083,1952,atomicAge
Fell,Valid,36.1,Galim (a),LL6,7.050000,12.433330,10848,7.05,FALSE,12.43333,1952,atomicAge
Fell,Valid,28,Galim (b),EH3/4-an,7.050000,12.433330,10849,7.05,FALSE,12.43333,1952,atomicAge
Fell,Valid,5500,Min-Fan-Zhun,LL6,32.333330,120.666670,16697,32.33333,FALSE,120.66667,1952,atomicAge
Fell,Valid,31,Medanitos,Eucrite-cm,-27.250000,-67.500000,15467,-27.25,FALSE,-67.5,1953,atomicAge
Fell,Valid,150,Molteno,Howardite,-31.250000,26.466670,16717,-31.25,FALSE,26.46667,1953,atomicAge
Fell,Valid,117.8,Peckelsheim,Diogenite-pm,51.666670,9.250000,18181,51.66667,FALSE,9.25,1953,atomicAge
Fell,Valid,810,Arbol Solo,H5,-33.000000,-66.000000,2325,-33,FALSE,-66,1954,atomicAge
Fell,Valid,305.5,Hökmark,L4,64.433330,21.200000,11893,64.43333,FALSE,21.2,1954,atomicAge
Fell,Valid,1300,Ishinga,H,-8.933330,33.800000,12049,-8.93333,FALSE,33.8,1954,atomicAge
Fell,Valid,6e3,Nikolskoe,L4,56.116670,37.333330,16977,56.11667,FALSE,37.33333,1954,atomicAge
Fell,Valid,5560,Sylacauga,H4,33.188360,-86.294500,23773,33.18836,FALSE,-86.2945,1954,atomicAge
Fell,Valid,2950,Karloowala,L6,31.583330,71.600000,12263,31.58333,FALSE,71.6,1955,atomicAge
Fell,Valid,900,Lahrauli,Ureilite,26.783330,82.716670,12433,26.78333,FALSE,82.71667,1955,atomicAge
Fell,Valid,2405,Messina,L5,38.183330,15.566670,15495,38.18333,FALSE,15.56667,1955,atomicAge
Fell,Valid,1500,Breitscheid,H5,50.666940,8.183610,5134,50.66694,FALSE,8.18361,1956,atomicAge
Fell,Valid,45.6,Centerville,H5,43.200000,-96.916670,5307,43.2,FALSE,-96.91667,1956,atomicAge
Fell,Valid,180,Hotse,L6,35.666670,115.500000,11913,35.66667,FALSE,115.5,1956,atomicAge
Fell,Valid,3457,Idutywa,H5,-32.100000,28.333330,12000,-32.1,FALSE,28.33333,1956,atomicAge
Fell,Valid,8165,Nadiabondi,H5,12.000000,1.000000,16889,12,FALSE,1,1956,atomicAge
Fell,Valid,1e5,Paranaiba,L6,-19.133330,-51.666670,18103,-19.13333,FALSE,-51.66667,1956,atomicAge
Fell,Valid,282,San Pedro de Quiles,L6,-31.016670,-71.400000,23130,-31.01667,FALSE,-71.4,1956,atomicAge
Fell,Valid,2e3,Sinnai,H6,39.300000,9.200000,23613,39.3,FALSE,9.2,1956,atomicAge
Fell,Valid,160,Al Rais,CR2-an,24.416670,39.516670,446,24.41667,FALSE,39.51667,1957,atomicAge
Fell,Valid,400,Distrito Quebracho,H4,-31.883330,-60.466670,7649,-31.88333,FALSE,-60.46667,1957,atomicAge
Fell,Valid,500,Essebi,C2-ung,2.883330,30.833330,10055,2.88333,FALSE,30.83333,1957,atomicAge
Fell,Valid,2500,Ibitira,Eucrite-mmict,-20.000000,-45.000000,11993,-20,FALSE,-45,1957,atomicAge
Fell,Valid,5e3,Raco,H5,-26.666670,-65.450000,22368,-26.66667,FALSE,-65.45,1957,atomicAge
Fell,Valid,194,Okabe,H5,36.183330,139.216670,17998,36.18333,FALSE,139.21667,1958,atomicAge
Fell,Valid,4682,Ramsdorf,L6,51.883330,6.933330,22386,51.88333,FALSE,6.93333,1958,atomicAge
Fell,Valid,3e3,Akwanga,H,8.916670,8.433330,432,8.91667,FALSE,8.43333,1959,atomicAge
Fell,Valid,3710,Hamlet,LL4,41.383330,-86.600000,11485,41.38333,FALSE,-86.6,1959,atomicAge
Fell,Valid,299,Kandahar (Afghanistan),L6,31.600000,65.783330,12243,31.6,FALSE,65.78333,1959,atomicAge
Fell,Valid,5555,Pribram,H5,49.666670,14.033330,18887,49.66667,FALSE,14.03333,1959,atomicAge
Fell,Valid,134.3,St.-Chinian,L6,43.433330,2.950000,23097,43.43333,FALSE,2.95,1959,atomicAge
Fell,Valid,303e3,Bruderheim,L6,53.900000,-112.883330,5156,53.9,FALSE,-112.88333,1960,atomicAge
Fell,Valid,NA,Gao-Guenie,H5,11.650000,-2.183330,10854,11.65,FALSE,-2.18333,1960,atomicAge
Fell,Valid,33e4,Millbillillie,Eucrite-mmict,-26.450000,120.366670,16643,-26.45,FALSE,120.36667,1960,atomicAge
Fell,Valid,72.9,Soheria,OC,27.133330,84.066670,23660,27.13333,FALSE,84.06667,1960,atomicAge
Fell,Valid,375,Bells,C2-ung,33.600000,-96.466670,5005,33.6,FALSE,-96.46667,1961,atomicAge
Fell,Valid,3950,Djermaia,H,12.733330,15.050000,7656,12.73333,FALSE,15.05,1961,atomicAge
Fell,Valid,2400,Ehole,H5,-17.300000,15.833330,7774,-17.3,FALSE,15.83333,1961,atomicAge
Fell,Valid,8360,Harleton,L6,32.675000,-94.511670,11830,32.675,FALSE,-94.51167,1961,atomicAge
Fell,Valid,85e3,Kayakent,"Iron, IIIAB",39.263330,31.780000,12268,39.26333,FALSE,31.78,1961,atomicAge
Fell,Valid,453.6,Kulak,L5,30.731110,66.802220,12369,30.73111,FALSE,66.80222,1961,atomicAge
Fell,Valid,6.1,Ras Tanura,H6,26.666670,50.150000,22395,26.66667,FALSE,50.15,1961,atomicAge
Fell,Valid,8800,Bogou,"Iron, IAB-MG",12.500000,0.700000,5097,12.5,FALSE,0.7,1962,atomicAge
Fell,Valid,25400,Desuri,H6,25.733330,73.616670,6693,25.73333,FALSE,73.61667,1962,atomicAge
Fell,Valid,1250,Dosso,L6,13.050000,3.166670,7722,13.05,FALSE,3.16667,1962,atomicAge
Fell,Valid,737.6,Kiel,L6,54.400000,10.150000,12301,54.4,FALSE,10.15,1962,atomicAge
Fell,Valid,927,São Jose do Rio Preto,H4,-20.810000,-49.380560,23171,-20.81,FALSE,-49.38056,1962,atomicAge
Fell,Valid,4960,Ste. Marguerite,H4,50.766670,3.000000,23099,50.76667,FALSE,3,1962,atomicAge
Fell,Valid,266.1,Hoxie,OC,39.350000,-100.450000,11915,39.35,FALSE,-100.45,1963,atomicAge
Fell,Valid,3e3,Inner Mongolia,L6,41.000000,112.000000,12037,41,FALSE,112,1963,atomicAge
Fell,Valid,2220,Karatu,LL6,-3.500000,35.583330,12258,-3.5,FALSE,35.58333,1963,atomicAge
Fell,Valid,7700,Ohuma,L5,6.750000,8.500000,17996,6.75,FALSE,8.5,1963,atomicAge
Fell,Valid,45760,Peace River,L6,56.133330,-117.933330,18180,56.13333,FALSE,-117.93333,1963,atomicAge
Fell,Valid,4e3,Çanakkale,L6,39.800000,26.600000,5250,39.8,FALSE,26.6,1964,atomicAge
Fell,Valid,6e3,Chernyi Bor,H4,53.700000,30.100000,5339,53.7,FALSE,30.1,1964,atomicAge
Fell,Valid,9e3,Granes,L6,42.900000,2.250000,10956,42.9,FALSE,2.25,1964,atomicAge
Fell,Valid,222,Jiange,H5,31.916670,104.916670,12086,31.91667,FALSE,104.91667,1964,atomicAge
Fell,Valid,1245,Muzaffarpur,"Iron, IAB-sHL",26.133330,85.533330,16885,26.13333,FALSE,85.53333,1964,atomicAge
Fell,Valid,44e3,Barwell,L5,52.565280,-1.339720,4954,52.56528,FALSE,-1.33972,1965,atomicAge
Fell,Valid,20350,Conquista,H4,-19.850000,-47.550000,5418,-19.85,FALSE,-47.55,1965,atomicAge
Fell,Valid,1,Revelstoke,CI1,51.333330,-118.950000,22592,51.33333,FALSE,-118.95,1965,atomicAge
Fell,Valid,3850,Taonan,L5,45.400000,122.900000,23873,45.4,FALSE,122.9,1965,atomicAge
Fell,Valid,NA,Chitado,L6,-17.350000,13.966670,5356,-17.35,FALSE,13.96667,1966,atomicAge
Fell,Valid,2968,Pavel,H5,43.466670,25.516670,18173,43.46667,FALSE,25.51667,1966,atomicAge
Fell,Valid,271e3,Saint-Séverin,LL6,45.300000,0.233330,23102,45.3,FALSE,0.23333,1966,atomicAge
Fell,Valid,2e4,Seoni,H6,21.683890,79.500830,23500,21.68389,FALSE,79.50083,1966,atomicAge
Fell,Valid,230,Denver,L6,39.782500,-104.930560,6660,39.7825,FALSE,-104.93056,1967,atomicAge
Fell,Valid,67.4,Kingai,H6,11.633330,24.683330,12316,11.63333,FALSE,24.68333,1967,atomicAge
Fell,Valid,2e3,Parambu,LL5,-6.233330,-40.700000,18102,-6.23333,FALSE,-40.7,1967,atomicAge
Fell,Valid,2500,Tathlith,L6,19.383330,43.733330,23885,19.38333,FALSE,43.73333,1967,atomicAge
Fell,Valid,134,Awere,L4,2.716670,32.833330,4910,2.71667,FALSE,32.83333,1968,atomicAge
Fell,Valid,25250,Juromenha,"Iron, IIIAB",38.740280,-7.270000,12213,38.74028,FALSE,-7.27,1968,atomicAge
Fell,Valid,13.1,Piancaldoli,LL3.4,44.244170,11.502220,18813,44.24417,FALSE,11.50222,1968,atomicAge
Fell,Valid,460,San Pedro Jacuaro,LL6,19.766670,-100.650000,34063,19.76667,FALSE,-100.65,1968,atomicAge
Fell,Valid,283.3,Schenectady,H5,42.860830,-73.950280,23458,42.86083,FALSE,-73.95028,1968,atomicAge
Fell,Valid,2e6,Allende,CV3,26.966670,-105.316670,2278,26.96667,FALSE,-105.31667,1969,atomicAge
Fell,Valid,600,Andreevka,L3,48.700000,37.500000,2296,48.7,FALSE,37.5,1969,atomicAge
Fell,Valid,5460,Bovedy,L3,54.566670,-6.333330,5121,54.56667,FALSE,-6.33333,1969,atomicAge
Fell,Valid,1e5,Murchison,CM2,-36.616670,145.200000,16875,-36.61667,FALSE,145.2,1969,atomicAge
Fell,Valid,4375,Patora,H6,20.936940,82.050000,18112,20.93694,FALSE,82.05,1969,atomicAge
Fell,Valid,815.3,Suchy Dul,L6,50.538060,16.263330,23737,50.53806,FALSE,16.26333,1969,atomicAge
Fell,Valid,5500,Dongtai,LL6,32.916670,120.783330,7708,32.91667,FALSE,120.78333,1970,atomicAge
Fell,Valid,3230,Dwaleni,H4-6,-27.200000,31.316670,7755,-27.2,FALSE,31.31667,1970,atomicAge
Fell,Valid,1500,Kiffa,H5,16.583330,-11.333330,12303,16.58333,FALSE,-11.33333,1970,atomicAge
Fell,Valid,17e3,Lost City,H5,36.008330,-95.150000,14711,36.00833,FALSE,-95.15,1970,atomicAge
Fell,Valid,2e3,Malakal,L5,9.500000,31.750000,15394,9.5,FALSE,31.75,1970,atomicAge
Fell,Valid,2450,Nejo,L6,9.500000,35.333330,16941,9.5,FALSE,35.33333,1970,atomicAge
Fell,Valid,3e3,Tillaberi,L6,14.250000,1.533330,23999,14.25,FALSE,1.53333,1970,atomicAge
Fell,Valid,2500,Anlong,H5,25.150000,105.183330,2305,25.15,FALSE,105.18333,1971,informationAge
Fell,Valid,1544,Haverö,Ureilite,60.245560,22.061940,11859,60.24556,FALSE,22.06194,1971,informationAge
Fell,Valid,13400,Kabo,H4,11.850000,8.216670,12220,11.85,FALSE,8.21667,1971,informationAge
Fell,Valid,2500,Marilia,H4,-22.250000,-49.933330,15422,-22.25,FALSE,-49.93333,1971,informationAge
Fell,Valid,177,Noventa Vicentina,H4,45.291670,11.527220,17930,45.29167,FALSE,11.52722,1971,informationAge
Fell,Valid,3900,Shuangyang,H5,43.500000,125.666670,23582,43.5,FALSE,125.66667,1971,informationAge
Fell,Valid,288,Guibga,L5,13.500000,-0.683330,11442,13.5,FALSE,-0.68333,1972,informationAge
Fell,Valid,7e3,Ipiranga,H6,-25.500000,-54.500000,12043,-25.5,FALSE,-54.5,1972,informationAge
Fell,Valid,1400,Canon City,H6,38.470280,-105.241390,5253,38.47028,FALSE,-105.24139,1973,informationAge
Fell,Valid,4e3,Lichtenberg,H6,-26.150000,26.183330,14646,-26.15,FALSE,26.18333,1973,informationAge
Fell,Valid,56,San Juan Capistrano,H6,33.484720,-117.662500,23128,33.48472,FALSE,-117.6625,1973,informationAge
Fell,Valid,1e3,Aioun el Atrouss,Diogenite-pm,16.398060,-9.570280,423,16.39806,FALSE,-9.57028,1974,informationAge
Fell,Valid,8e3,Enshi,H5,30.300000,109.500000,10038,30.3,FALSE,109.5,1974,informationAge
Fell,Valid,3618,Gorlovka,H3.7,48.283330,38.083330,10949,48.28333,FALSE,38.08333,1974,informationAge
Fell,Valid,483,Jolomba,LL6,-11.850000,15.833330,12199,-11.85,FALSE,15.83333,1974,informationAge
Fell,Valid,4850,Mayo Belwa,Aubrite,8.966670,12.083330,15451,8.96667,FALSE,12.08333,1974,informationAge
Fell,Valid,2700,Naragh,H6,33.750000,51.500000,16909,33.75,FALSE,51.5,1974,informationAge
Fell,Valid,50,Stratford,L6,41.200000,-73.133330,23728,41.2,FALSE,-73.13333,1974,informationAge
Fell,Valid,7330,Ijopega,H6,-6.033330,145.366670,12004,-6.03333,FALSE,145.36667,1975,informationAge
Fell,Valid,14250,Ningbo,"Iron, IVA",29.866670,121.483330,16980,29.86667,FALSE,121.48333,1975,informationAge
Fell,Valid,10500,Tambakwatu,L6,-7.750000,112.766670,23795,-7.75,FALSE,112.76667,1975,informationAge
Fell,Valid,1914,Acapulco,Acapulcoite,16.883330,-99.900000,10,16.88333,FALSE,-99.9,1976,informationAge
Fell,Valid,45e3,Dhajala,H3.8,22.377780,71.427220,6698,22.37778,FALSE,71.42722,1976,informationAge
Fell,Valid,642,Dowa,Stone-uncl,-13.666670,33.916670,7725,-13.66667,FALSE,33.91667,1976,informationAge
Fell,Valid,NA,Dunhua,Stone-uncl,43.333330,128.250000,7749,43.33333,FALSE,128.25,1976,informationAge
Fell,Valid,45.5,Grefsheim,L5,60.666670,11.000000,11196,60.66667,FALSE,11,1976,informationAge
Fell,Valid,4e6,Jilin,H5,44.050000,126.166670,12171,44.05,FALSE,126.16667,1976,informationAge
Fell,Valid,950,Junan,L6,35.200000,118.800000,12210,35.2,FALSE,118.8,1976,informationAge
Fell,Valid,2600,Qingzhen,EH3,26.533330,106.466670,18908,26.53333,FALSE,106.46667,1976,informationAge
Fell,Valid,465.5,Ruhobobo,L6,-1.450000,29.833330,22780,-1.45,FALSE,29.83333,1976,informationAge
Fell,Valid,605,Sheyang,L6,33.650000,120.066670,23531,33.65,FALSE,120.06667,1976,informationAge
Fell,Valid,6e3,Alta'ameem,LL5,35.273330,44.215560,2284,35.27333,FALSE,44.21556,1977,informationAge
Fell,Valid,7500,Bo Xian,LL3.9,33.833330,115.833330,5090,33.83333,FALSE,115.83333,1977,informationAge
Fell,Valid,1810,Changde,H5,29.083330,111.750000,5322,29.08333,FALSE,111.75,1977,informationAge
Fell,Valid,17226,El Paso de Aguila,H5,25.370000,-97.370000,45977,25.37,FALSE,-97.37,1977,informationAge
Fell,Valid,2500,Fuyang,Stone-uncl,32.900000,115.900000,10840,32.9,FALSE,115.9,1977,informationAge
Fell,Valid,1200,Iguaracu,H5,-23.200000,-51.833330,12003,-23.2,FALSE,-51.83333,1977,informationAge
Fell,Valid,4576,Innisfree,L5,53.415000,-111.337500,12039,53.415,FALSE,-111.3375,1977,informationAge
Fell,Valid,23,Kutais,H5,44.516670,39.300000,12383,44.51667,FALSE,39.3,1977,informationAge
Fell,Valid,1300,Louisville,L6,38.250000,-85.750000,14716,38.25,FALSE,-85.75,1977,informationAge
Fell,Valid,4e3,Chitenay,L6,47.470830,0.976670,5357,47.47083,FALSE,0.97667,1978,informationAge
Fell,Valid,498,Lishui,L5,31.633330,118.983330,14659,31.63333,FALSE,118.98333,1978,informationAge
Fell,Valid,5e4,Nuevo Mercurio,H5,24.300000,-102.133330,17938,24.3,FALSE,-102.13333,1978,informationAge
Fell,Valid,1600,Cilimus,L5,-6.950000,108.100000,5364,-6.95,FALSE,108.1,1979,informationAge
Fell,Valid,20500,Jartai,L6,39.700000,105.800000,12074,39.7,FALSE,105.8,1979,informationAge
Fell,Valid,1900,Guangrao,L6,37.100000,118.400000,11437,37.1,FALSE,118.4,1980,informationAge
Fell,Valid,2e3,Kaidun,CR2,15.000000,48.300000,12228,15,FALSE,48.3,1980,informationAge
Fell,Valid,2520,Lunan,H6,24.800000,103.300000,14754,24.8,FALSE,103.3,1980,informationAge
Fell,Valid,1100,Mianchi,H5,34.800000,111.700000,16631,34.8,FALSE,111.7,1980,informationAge
Fell,Valid,1900,Richland Springs,OC,31.250000,-99.033330,22602,31.25,FALSE,-99.03333,1980,informationAge
Fell,Valid,5e4,Akyumak,"Iron, IVA",39.916670,42.816670,433,39.91667,FALSE,42.81667,1981,informationAge
Fell,Valid,367,Chiang Khan,H6,17.900000,101.633330,5345,17.9,FALSE,101.63333,1981,informationAge
Fell,Valid,18e3,Dahmani,LL6,35.616670,8.833330,5504,35.61667,FALSE,8.83333,1981,informationAge
Fell,Valid,34650,Gursum,H4/5,9.366670,42.416670,11465,9.36667,FALSE,42.41667,1981,informationAge
Fell,Valid,93200,Machinga,L6,-15.212220,35.242220,15371,-15.21222,FALSE,35.24222,1981,informationAge
Fell,Valid,25e4,Omolon,"Pallasite, PMG",64.020000,161.808330,18019,64.02,FALSE,161.80833,1981,informationAge
Fell,Valid,61.4,Salem,L6,44.979170,-122.969440,23107,44.97917,FALSE,-122.96944,1981,informationAge
Fell,Valid,2449,Gujargaon,H5,22.983330,76.050000,11448,22.98333,FALSE,76.05,1982,informationAge
Fell,Valid,1275,Qidong,L/LL5,32.083330,121.500000,18907,32.08333,FALSE,121.5,1982,informationAge
Fell,Valid,NA,Guangnan,L6,24.100000,105.000000,11436,24.1,FALSE,105,1983,informationAge
Fell,Valid,1e5,Kidairat,H6,14.000000,28.000000,12300,14,FALSE,28,1983,informationAge
Fell,Valid,1443,Maryville,L6,35.800000,-84.100000,15436,35.8,FALSE,-84.1,1983,informationAge
Fell,Valid,4610,Ningqiang,C3-ung,32.925000,105.906670,16981,32.925,FALSE,105.90667,1983,informationAge
Fell,Valid,67225,Rahimyar Khan,L5,28.225000,70.200000,31302,28.225,FALSE,70.2,1983,informationAge
Fell,Valid,320,Aomori,L6,40.810560,140.785560,2313,40.81056,FALSE,140.78556,1984,informationAge
Fell,Valid,488.1,Binningup,H5,-33.156390,115.676390,5051,-33.15639,FALSE,115.67639,1984,informationAge
Fell,Valid,1455,Claxton,L6,32.102500,-81.872780,5374,32.1025,FALSE,-81.87278,1984,informationAge
Fell,Valid,4162,Gashua,L6,12.850000,11.033330,44882,12.85,FALSE,11.03333,1984,informationAge
Fell,Valid,1e5,Gujba,CBa,11.491670,11.658330,11449,11.49167,FALSE,11.65833,1984,informationAge
Fell,Valid,32490,Jumapalo,L6,-7.716670,111.200000,12209,-7.71667,FALSE,111.2,1984,informationAge
Fell,Valid,529,Nantong,H6,32.116670,121.800000,16907,32.11667,FALSE,121.8,1984,informationAge
Fell,Valid,27.5,Tomiya,H4/5,38.366670,140.865560,24024,38.36667,FALSE,140.86556,1984,informationAge
Fell,Valid,45e3,La Criolla,L6,-31.233330,-58.166670,12396,-31.23333,FALSE,-58.16667,1985,informationAge
Fell,Valid,43,Salzwedel,LL5,52.750000,11.050000,23114,52.75,FALSE,11.05,1985,informationAge
Fell,Valid,11510,Kokubunji,L6,34.300000,133.950000,12342,34.3,FALSE,133.95,1986,informationAge
Fell,Valid,1282,Lanxi,L6,46.241670,126.196110,12464,46.24167,FALSE,126.19611,1986,informationAge
Fell,Valid,1215.5,Oued el Hadjar,LL6,30.180000,-6.577170,18050,30.18,FALSE,-6.57717,1986,informationAge
Fell,Valid,10200,Raghunathpura,"Iron, IIAB",27.725280,76.465000,22371,27.72528,FALSE,76.465,1986,informationAge
Fell,Valid,430,Sayama,CM2,35.866670,139.400000,23192,35.86667,FALSE,139.4,1986,informationAge
Fell,Valid,26e4,Suizhou,L6,31.616670,113.466670,23738,31.61667,FALSE,113.46667,1986,informationAge
Fell,Valid,2232,Tianzhang,H5,32.946670,118.990000,23984,32.94667,FALSE,118.99,1986,informationAge
Fell,Valid,14250,Laochenzhen,H5,33.133330,115.166670,12466,33.13333,FALSE,115.16667,1987,informationAge
Fell,Valid,1025,Ceniceros,L3.7,26.466670,-105.233330,5306,26.46667,FALSE,-105.23333,1988,informationAge
Fell,Valid,2936,Chela,H4,-3.666670,32.500000,5338,-3.66667,FALSE,32.5,1988,informationAge
Fell,Valid,3920,Chisenga,"Iron, IIIAB",-10.059440,33.395000,5355,-10.05944,FALSE,33.395,1988,informationAge
Fell,Valid,1430,Palca de Aparzo,L5,-23.116670,-65.100000,18074,-23.11667,FALSE,-65.1,1988,informationAge
Fell,Valid,977,Torino,H6,45.066670,7.666670,24029,45.06667,FALSE,7.66667,1988,informationAge
Fell,Valid,1557,Bawku,LL5,11.083330,-0.183330,4976,11.08333,FALSE,-0.18333,1989,informationAge
Fell,Valid,1e4,El Idrissia,L6,34.416670,3.250000,7807,34.41667,FALSE,3.25,1989,informationAge
Fell,Valid,NA,Pê,L6,11.333670,-3.542170,18179,11.33367,FALSE,-3.54217,1989,informationAge
Fell,Valid,7e3,Sfax,L6,34.750000,10.716670,23512,34.75,FALSE,10.71667,1989,informationAge
Fell,Valid,4e4,Sivas,H6,39.824670,36.135830,23617,39.82467,FALSE,36.13583,1989,informationAge
Fell,Valid,630,Sixiangkou,L5,32.433330,119.866670,23619,32.43333,FALSE,119.86667,1989,informationAge
Fell,Valid,1504,Burnwell,H4-an,37.621940,-82.237220,5175,37.62194,FALSE,-82.23722,1990,informationAge
Fell,Valid,670,Glanerbrug,L/LL5,52.200000,6.866670,10923,52.2,FALSE,6.86667,1990,informationAge
Fell,Valid,4720,Itqiy,EH7-an,26.590830,-12.952170,12058,26.59083,FALSE,-12.95217,1990,informationAge
Fell,Valid,666.6,Magombedze,H3-5,-19.483330,31.650000,15387,-19.48333,FALSE,31.65,1990,informationAge
Fell,Valid,17450,Quija,H,44.616670,126.133330,22361,44.61667,FALSE,126.13333,1990,informationAge
Fell,Valid,325e3,Sterlitamak,"Iron, IIIAB",53.666670,55.983330,23724,53.66667,FALSE,55.98333,1990,informationAge
Fell,Valid,23680,Campos Sales,L5,-7.033330,-40.166670,5249,-7.03333,FALSE,-40.16667,1991,informationAge
Fell,Valid,767,Glatton,L6,52.459720,-0.300000,10930,52.45972,FALSE,-0.3,1991,informationAge
Fell,Valid,11e4,Mount Tazerzait,L5,18.700000,4.800000,16804,18.7,FALSE,4.8,1991,informationAge
Fell,Valid,483.7,Noblesville,H4-6,40.085280,-86.055000,16985,40.08528,FALSE,-86.055,1991,informationAge
Fell,Valid,1e3,Tahara,H4/5,34.720000,137.305000,23784,34.72,FALSE,137.305,1991,informationAge
Fell,Valid,15e4,Mbale,L5/6,1.066670,34.166670,15455,1.06667,FALSE,34.16667,1992,informationAge
Fell,Valid,6380,Mihonoseki,L6,35.568330,133.220000,16635,35.56833,FALSE,133.22,1992,informationAge
Fell,Valid,12570,Peekskill,H6,41.283330,-73.916670,18782,41.28333,FALSE,-73.91667,1992,informationAge
Fell,Valid,16700,Ban Rong Du,"Iron, ungrouped",16.666670,101.183330,4934,16.66667,FALSE,101.18333,1993,informationAge
Fell,Valid,5e3,El Tigre,L6,19.967220,-103.051670,7819,19.96722,FALSE,-103.05167,1993,informationAge
Fell,Valid,866,Senboku,H6,39.438330,140.511670,23496,39.43833,FALSE,140.51167,1993,informationAge
Fell,Valid,36900,Songyuan,L6,45.250000,125.000000,23668,45.25,FALSE,125,1993,informationAge
Fell,Valid,15500,Baszkówka,L5,52.033330,20.935830,4957,52.03333,FALSE,20.93583,1994,informationAge
Fell,Valid,469,Coleman,L6,43.761110,-84.507780,5401,43.76111,FALSE,-84.50778,1994,informationAge
Fell,Valid,1140,Devri-Khera,L6,24.225000,76.525000,6696,24.225,FALSE,76.525,1994,informationAge
Fell,Valid,4e4,Lohawat,Howardite,26.965560,72.626670,14678,26.96556,FALSE,72.62667,1994,informationAge
Fell,Valid,12e3,New Halfa,L4,15.366670,35.683330,16954,15.36667,FALSE,35.68333,1994,informationAge
Fell,Valid,25400,St-Robert,H5,45.968610,-72.978060,23733,45.96861,FALSE,-72.97806,1994,informationAge
Fell,Valid,128800,Dong Ujimqin Qi,Mesosiderite,45.500000,119.033330,7706,45.5,FALSE,119.03333,1995,informationAge
Fell,Valid,5e3,Galkiv,H4,51.683330,30.783330,10850,51.68333,FALSE,30.78333,1995,informationAge
Fell,Valid,420,Neagari,L6,36.449170,136.465280,16934,36.44917,FALSE,136.46528,1995,informationAge
Fell,Valid,189,Pétèlkolé,H5,14.052000,0.420000,18800,14.052,FALSE,0.42,1995,informationAge
Fell,Valid,1710,Silao,H5,20.933330,-101.383330,23594,20.93333,FALSE,-101.38333,1995,informationAge
Fell,Valid,10200,Fermo,H3-5,43.181110,13.753330,10091,43.18111,FALSE,13.75333,1996,informationAge
Fell,Valid,2910,Guangmingshan,H5,39.804170,122.763890,11435,39.80417,FALSE,122.76389,1996,informationAge
Fell,Valid,42e3,Piplia Kalan,Eucrite-mmict,26.034720,73.941670,18831,26.03472,FALSE,73.94167,1996,informationAge
Fell,Valid,1e5,Juancheng,H5,35.500000,115.416670,12203,35.5,FALSE,115.41667,1997,informationAge
Fell,Valid,3700,Chadong,L6,28.533330,109.316670,5313,28.53333,FALSE,109.31667,1998,informationAge
Fell,Valid,7e3,Dashoguz,H5,41.984440,59.685000,6604,41.98444,FALSE,59.685,1998,informationAge
Fell,Valid,680.5,Elbert,LL6,39.246670,-104.588170,7822,39.24667,FALSE,-104.58817,1998,informationAge
Fell,Valid,202.6,Kitchener,L6,43.383330,-80.383330,12326,43.38333,FALSE,-80.38333,1998,informationAge
Fell,Valid,11e5,Kunya-Urgench,H5,42.250000,59.200000,12379,42.25,FALSE,59.2,1998,informationAge
Fell,Valid,2587,Monahans (1998),H5,31.608330,-102.858330,16719,31.60833,FALSE,-102.85833,1998,informationAge
Fell,Valid,2e4,Ourique,H4,37.608330,-8.280000,18052,37.60833,FALSE,-8.28,1998,informationAge
Fell,Valid,71400,Portales Valley,H6,34.175000,-103.295000,18874,34.175,FALSE,-103.295,1998,informationAge
Fell,Valid,25e3,Bilanga,Diogenite,12.450000,-0.083330,5045,12.45,FALSE,-0.08333,1999,informationAge
Fell,Valid,1e4,Djoumine,H5-6,36.950000,9.550000,7657,36.95,FALSE,9.55,1999,informationAge
Fell,Valid,30,Dunbogan,L6,-31.666670,152.833330,7743,-31.66667,FALSE,152.83333,1999,informationAge
Fell,Valid,1500,Katagum,L6,11.333330,10.083330,35465,11.33333,FALSE,10.08333,1999,informationAge
Fell,Valid,136,Kobe,CK4,34.733330,135.166670,12336,34.73333,FALSE,135.16667,1999,informationAge
Fell,Valid,271.4,Leighlinbridge,L6,52.666670,-6.966670,12759,52.66667,FALSE,-6.96667,1999,informationAge
Fell,Valid,478,Sabrum,LL6,23.083330,91.666670,22793,23.08333,FALSE,91.66667,1999,informationAge
Fell,Valid,NA,Gasseltepaoua,H5,14.150830,-2.041670,10866,14.15083,FALSE,-2.04167,2e3,informationAge
Fell,Valid,633,Morávka,H5,49.600000,18.533330,16742,49.6,FALSE,18.53333,2e3,informationAge
Fell,Valid,1e4,Tagish Lake,C2-ung,59.704440,-134.201390,23782,59.70444,FALSE,-134.20139,2e3,informationAge
Fell,Valid,700,Al Zarnkh,LL5,13.660330,28.960000,447,13.66033,FALSE,28.96,2001,informationAge
Fell,Valid,19e3,Beni M'hira,L6,32.866670,10.800000,5018,32.86667,FALSE,10.8,2001,informationAge
Fell,Valid,5300,Bukhara,CV3,39.779780,64.600350,30448,39.77978,FALSE,64.60035,2001,informationAge
Fell,Valid,12500,Dergaon,H5,26.683330,93.866670,6664,26.68333,FALSE,93.86667,2001,informationAge
Fell,Valid,12e3,Devgaon,H3.8,19.000000,81.000000,6694,19,FALSE,81,2001,informationAge
Fell,Valid,252,Alby sur Chéran,Eucrite-mmict,45.821330,6.015330,458,45.82133,FALSE,6.01533,2002,informationAge
Fell,Valid,45e3,Bensour,LL6,30.000000,-7.000000,5024,30,FALSE,-7,2002,informationAge
Fell,Valid,678,Bhawad,LL6,26.508330,73.115280,36591,26.50833,FALSE,73.11528,2002,informationAge
Fell,Valid,19e3,Kilabo,LL6,12.766670,9.800000,12307,12.76667,FALSE,9.8,2002,informationAge
Fell,Valid,6e3,Maromandia,L6,-14.200000,48.100000,15430,-14.2,FALSE,48.1,2002,informationAge
Fell,Valid,6189,Neuschwanstein,EL6,47.525000,10.808330,16950,47.525,FALSE,10.80833,2002,informationAge
Fell,Valid,237,San Michele,L6,43.666670,13.000000,31315,43.66667,FALSE,13,2002,informationAge
Fell,Valid,45300,Thuathe,H4/5,-29.333330,27.583330,23976,-29.33333,FALSE,27.58333,2002,informationAge
Fell,Valid,190,Boumdeid (2003),L6,17.710670,-11.371500,57168,17.71067,FALSE,-11.3715,2003,informationAge
Fell,Valid,414,Hiroshima,H5,34.450000,132.383330,11889,34.45,FALSE,132.38333,2003,informationAge
Fell,Valid,167.7,Hoima,H6,1.345000,31.472780,44714,1.345,FALSE,31.47278,2003,informationAge
Fell,Valid,16820,Kasauli,H4,29.583330,77.583330,30740,29.58333,FALSE,77.58333,2003,informationAge
Fell,Valid,6669.2,Kendrapara,H4-5,20.462500,86.702780,12276,20.4625,FALSE,86.70278,2003,informationAge
Fell,Valid,19256,New Orleans,H5,29.947180,-90.109760,16960,29.94718,FALSE,-90.10976,2003,informationAge
Fell,Valid,4440,Ouadangou,L5,12.900000,0.080000,56729,12.9,FALSE,0.08,2003,informationAge
Fell,Valid,17e3,Oum Dreyga,H3-5,24.300000,-13.100000,31282,24.3,FALSE,-13.1,2003,informationAge
Fell,Valid,18e3,Park Forest,L5,41.484720,-87.679170,18106,41.48472,FALSE,-87.67917,2003,informationAge
Fell,Valid,25e3,Benguerir,LL6,32.250000,-8.150000,30443,32.25,FALSE,-8.15,2004,informationAge
Fell,Valid,960,Berthoud,Eucrite-mmict,40.305830,-105.023250,47355,40.30583,FALSE,-105.02325,2004,informationAge
Fell,Valid,1600,Kaprada,L5/6,20.339160,73.223290,47357,20.33916,FALSE,73.22329,2004,informationAge
Fell,Valid,4629,Maigatari-Danduma,H5/6,12.833330,9.383330,30751,12.83333,FALSE,9.38333,2004,informationAge
Fell,Valid,180,Orlando,Eucrite,28.547500,-81.362220,34489,28.5475,FALSE,-81.36222,2004,informationAge
Fell,Valid,29560,Bassikounou,H5,15.783330,-5.900000,44876,15.78333,FALSE,-5.9,2006,informationAge
Fell,Valid,100,Jodiya,L5,22.680000,70.313330,47362,22.68,FALSE,70.31333,2006,informationAge
Fell,Valid,6800,Kavarpura,"Iron, IIE-an",25.143330,75.813330,47351,25.14333,FALSE,75.81333,2006,informationAge
Fell,Valid,3763,Moss,CO3.6,59.433330,10.700000,36592,59.43333,FALSE,10.7,2006,informationAge
Fell,Valid,324,Bunburra Rockhole,Eucrite,-31.350000,129.190000,48653,-31.35,FALSE,129.19,2007,informationAge
Fell,Valid,478,Cali,H/L4,3.405000,-76.510000,45976,3.405,FALSE,-76.51,2007,informationAge
Fell,Valid,342,Carancas,H4-5,-16.664440,-69.043890,45817,-16.66444,FALSE,-69.04389,2007,informationAge
Fell,Valid,1e5,Chergach ,H5,23.696390,-5.014720,47347,23.69639,FALSE,-5.01472,2007,informationAge
Fell,Valid,3396,Didim,H3-5,37.351720,27.329970,47350,37.35172,FALSE,27.32997,2007,informationAge
Fell,Valid,70500,Mahadevpur,H4/5,27.666670,95.783330,47361,27.66667,FALSE,95.78333,2007,informationAge
Fell,Valid,500,Puerto Lápice,Eucrite-br,39.350000,-3.516670,45984,39.35,FALSE,-3.51667,2007,informationAge
Fell,Valid,18.41,Red Canyon Lake,H5,38.137420,-119.758120,53502,38.13742,FALSE,-119.75812,2007,informationAge
Fell,Valid,3950,Almahata Sitta,Ureilite-an,20.745750,32.412750,48915,20.74575,FALSE,32.41275,2008,informationAge
Fell,Valid,270,Berduc,L6,-31.910000,-58.328330,48975,-31.91,FALSE,-58.32833,2008,informationAge
Fell,Valid,41e3,Buzzard Coulee,H4,52.996000,-109.848170,48654,52.996,FALSE,-109.84817,2008,informationAge
Fell,Valid,6580,Daule,L5,-1.870890,-79.957560,51559,-1.87089,FALSE,-79.95756,2008,informationAge
Fell,Valid,5760,Kemer,L4,36.541940,29.418220,53654,36.54194,FALSE,29.41822,2008,informationAge
Fell,Valid,6913,Pleşcoi,L5-6,45.275000,26.709720,51706,45.275,FALSE,26.70972,2008,informationAge
Fell,Valid,4e3,Santa Lucia (2008),L6,-31.535556,-68.489444,50909,-31.535556,FALSE,-68.489444,2008,informationAge
Fell,Valid,11e4,Sulagiri,LL6,12.666670,78.033330,48951,12.66667,FALSE,78.03333,2008,informationAge
Fell,Valid,1e5,Tamdakht,H5,31.163330,-7.015000,48691,31.16333,FALSE,-7.015,2008,informationAge
Fell,Valid,9500,Ash Creek,L6,31.805000,-97.010000,48954,31.805,FALSE,-97.01,2009,informationAge
Fell,Valid,215,Grimsby,H5,43.200000,-79.616670,50911,43.2,FALSE,-79.61667,2009,informationAge
Fell,Valid,3667,Jesenice,L6,46.421370,14.052170,51589,46.42137,FALSE,14.05217,2009,informationAge
Fell,Valid,25.81,Maribo,CM2,54.761830,11.467450,48973,54.76183,FALSE,11.46745,2009,informationAge
Fell,Valid,1600,Huaxi,H5,26.464690,106.632410,54719,26.46469,FALSE,106.63241,2010,informationAge
Fell,Valid,4300,Košice,H5,48.763670,21.176330,53810,48.76367,FALSE,21.17633,2010,informationAge
Fell,Valid,329.7,Lorton,L6,38.700660,-77.211630,52843,38.70066,FALSE,-77.21163,2010,informationAge
Fell,Valid,24.54,Mason Gully,H5,0.000000,0.000000,53653,0,FALSE,0,2010,informationAge
Fell,Valid,3584,Mifflin,L5,42.907500,-90.365560,52090,42.9075,FALSE,-90.36556,2010,informationAge
Fell,Valid,3599,Boumdeid (2011),L6,17.174930,-11.341330,57167,17.17493,FALSE,-11.34133,2011,informationAge
Fell,Valid,1066,Sołtmany,L6,54.008830,22.005000,53829,54.00883,FALSE,22.005,2011,informationAge
Fell,Valid,14200,Thika,L6,-1.002780,37.150280,54493,-1.00278,FALSE,37.15028,2011,informationAge
Fell,Valid,7e3,Tissint,Martian (shergottite),29.481950,-7.611230,54823,29.48195,FALSE,-7.61123,2011,informationAge
Fell,Valid,2900,Battle Mountain,L6,40.668130,-117.189130,56133,40.66813,FALSE,-117.18913,2012,informationAge
Fell,Valid,992.5,Sutter's Mill,C,38.803890,-120.908060,55529,38.80389,FALSE,-120.90806,2012,informationAge
Fell,Valid,1e5,Chelyabinsk,LL5,54.816670,61.116670,57165,54.81667,FALSE,61.11667,2013,informationAge
